State,District,Latitude,Longitude,District code,Population,Male,Female,Literate,Households_with_Internet,Male_Literate,Female_Literate,Hindus,Muslims,Christians,Sikhs,Buddhists,Jains,Others_Religions,Religion_Not_Stated,Housholds_with_Electric_Lighting,LPG_or_PNG_Households,Rural_Households,Urban_Households,Below_Primary_Education,Primary_Education,Middle_Education,Secondary_Education,Higher_Education,Graduate_Education,Other_Education,Total_Education,Age_Group_0_29,Age_Group_30_49,Age_Group_50,Age not stated,Having_latrine_facility_within_the_premises_Total_Households,Household_size_1_person_Households,Household_size_2_persons_Households,Household_size_3_persons_Households,Household_size_4_persons_Households,Household_size_5_persons_Households,Household_size_6_8_persons_Households,Household_size_9_persons_and_above_Households,sex_ratio,literacy_rate
Andhra Pradesh,Adilabad,19.284513950073435,78.81321233480176,532,2741239,1369597,1371642,1483347,5512,856350,626997,2399901,275970,15422,1377,25510,617,322,22120,566108,194954,597466,220248,232470,344167,281752,225957,143143,100226,19277,2377632,1536378,704551,422522,77788,191052,27018,80780,103066,182282,132039,114585,12000,1001,54
Andhra Pradesh,Anantapur,14.312065561843148,77.4601584478577,553,4081148,2064495,2016653,2310960,8606,1338474,972486,3599372,443456,20463,932,341,1417,309,14858,897970,223016,902997,341431,462273,720357,582075,331793,162175,144915,23341,3795998,2189396,1104565,739612,47575,353948,36633,106460,156107,291388,196768,153243,20566,977,57
Andhra Pradesh,Chittoor,13.33109263067696,78.92763898886037,554,4174064,2090204,2083860,2667878,13763,1484794,1183084,3737588,397870,24129,867,253,1322,358,11677,944555,324406,907970,395900,522961,770836,673197,548336,265199,246409,36017,4233948,2148179,1159053,807430,59402,382377,55151,132169,175853,311451,190750,142837,13905,997,64
Andhra Pradesh,East Godavari,16.782718320784902,82.2432074720511,545,5154296,2569688,2584608,3288577,22411,1716933,1571644,4983330,77777,77825,738,413,4149,403,9661,1297273,479914,1199479,406362,669420,947606,797497,521562,271809,263023,47702,5043222,2724328,1478954,948122,2892,800168,95856,239150,275218,468704,208570,112434,7478,1006,64
Andhra Pradesh,Guntur,15.884925767634847,80.58657614107885,548,4887813,2440521,2447292,2960441,19383,1634726,1325715,4217597,559770,89763,764,323,3282,332,15982,1186028,648568,1069877,513113,736270,845810,674957,453446,246580,221924,30279,4683615,2583462,1371811,928462,4078,762845,83026,212589,229537,413160,200288,139120,10111,1003,61
Andhra Pradesh,Hyderabad,17.38971555555556,78.46668888888888,536,3943323,2018575,1924748,2892155,149034,1542688,1349467,2046051,1713405,87522,11446,1268,19560,1929,62142,869721,581509,0,1066289,230962,596591,685215,811501,517425,558090,45937,4002623,2249130,1068243,542669,83281,868186,20495,90415,135609,236179,174472,181806,42536,954,73
Andhra Pradesh,Karimnagar,18.515483193277312,79.43765428571413,534,3776269,1880800,1895469,2206829,8831,1257238,949591,3491139,244723,24979,2086,332,312,115,12583,926768,344667,877236,288044,340372,453505,482842,463403,293493,256633,35312,3605953,1940234,1031735,728494,75806,452865,55169,146503,166249,306232,176730,120450,9406,1008,58
Andhra Pradesh,Khammam,17.683921325051784,80.67008643892335,541,2797370,1390988,1406382,1630234,8628,901640,728594,2595321,158887,33463,655,217,459,539,7829,668519,219710,669262,201363,295639,346118,329630,238811,154774,160804,25456,2426504,1530602,774583,477955,14230,360531,39441,120442,144836,254089,114041,69643,5094,1011,58
Andhra Pradesh,Krishna,16.143872753151673,81.14805061000413,547,4517398,2267375,2250023,3009718,30438,1598959,1410759,4023678,307043,145598,1393,863,6320,906,31597,1163932,632890,909292,567042,618101,692968,630603,531821,312753,328454,54728,4521927,2340943,1284630,833959,57866,863417,81004,218150,235751,417156,171961,95350,7885,992,67
Andhra Pradesh,Kurnool,15.43759715142429,77.90086836581717,552,4053463,2039227,2014236,2127161,10081,1246369,880792,3328380,670737,33165,737,255,2235,434,17520,816721,195001,783853,306982,521327,672951,466940,271828,152453,115504,19282,3738218,2368684,1053618,609027,22134,353289,29425,86663,120568,238908,188029,181675,31914,988,52
Andhra Pradesh,Mahbubnagar,16.639546224256293,77.98933089244859,538,4053028,2050386,2002642,1940646,6153,1158386,782260,3673456,334172,21345,658,290,388,267,22452,757821,136843,848963,161052,419379,596134,441585,308575,169083,98227,16121,3653423,2360874,1027525,637430,27199,231015,25689,79590,120964,225428,195006,191259,35923,977,48
Andhra Pradesh,Medak,17.889304978038055,78.13778901903379,535,3033288,1523030,1510258,1637137,8635,953406,683731,2637313,342449,34301,1309,554,457,217,16688,604719,163074,593653,195479,324267,503713,481984,373729,201928,127493,16466,3229398,1735769,779738,509368,8413,293838,19664,65211,96457,178179,144437,140018,22798,992,54
Andhra Pradesh,Nalgonda,17.113250515463907,79.16984453608244,539,3488809,1759772,1729037,2001019,7715,1160757,840262,3249231,188646,35025,937,241,250,132,14347,789225,228818,833504,197433,369537,518669,471233,367424,238695,196134,27003,3483506,1932349,897137,651748,7575,355700,45165,120169,144858,270974,163054,119437,11775,983,57
Andhra Pradesh,Nizamabad,18.429485849056604,78.07523490566035,533,2551335,1250641,1300694,1389810,5261,790214,599596,2123426,391596,19653,2357,1847,542,146,11768,545913,186740,565165,155133,269487,421399,338668,396396,223365,141850,13382,2846409,1399773,676401,437573,37588,245523,23207,67384,94217,163189,122189,107972,12575,1040,54
Andhra Pradesh,Prakasam,15.489039001601704,80.11665790176184,549,3397448,1714764,1682684,1904435,6151,1107686,796749,3150195,220654,18775,266,97,204,206,7051,763746,290947,873486,214089,489805,495556,368919,249034,142026,133627,21976,3119253,1832695,917391,641707,5655,321332,51012,130198,144923,251635,151457,115932,12119,981,56
Andhra Pradesh,Srikakulam,18.570900998697432,84.25874814010675,542,2703114,1341738,1361376,1495381,3988,857824,637557,2666950,9025,18879,193,77,160,106,7724,615432,149554,752752,149684,291793,348354,319244,251521,146721,121213,21031,2509869,1423119,747385,528736,3874,146386,42847,86481,118149,224481,121821,85869,9675,1015,55
Andhra Pradesh,Vizianagaram,18.28329696032972,83.45982854198873,543,2344474,1161477,1182997,1238388,4453,707503,530885,2299129,16423,17853,380,114,815,183,9577,527736,140361,592458,157056,250446,300057,257468,186576,115144,103591,27041,2272006,1206366,666394,451469,20245,131289,30854,74473,104907,192867,105612,80085,7807,1019,53
Andhra Pradesh,Warangal,18.01752608695651,79.87422028985509,540,3512576,1759281,1753295,2065023,12952,1179790,885233,3273755,197333,31377,1453,253,569,126,7710,828077,237349,758738,288249,314252,457529,454322,430242,279234,248942,27663,3403436,1891954,941452,664872,14298,388583,43692,124347,144960,285338,162772,117016,10428,997,59
Andhra Pradesh,West Godavari,16.63297943925236,81.45912990654196,546,3936966,1964918,1972048,2652389,12050,1379223,1273166,3733191,86142,109120,288,209,1578,211,6227,1017568,435334,1007255,248373,595331,718960,585595,415178,215863,207586,33329,3800609,2051513,1127764,755533,2156,694857,70587,193110,211052,363280,150277,82492,4982,1004,67
Arunachal Pradesh,Changlang,27.36048479338845,96.37552644628106,253,148226,76948,71278,73174,170,44027,29147,47683,2134,35969,94,50381,95,11738,132,14593,4762,33422,6498,20425,22537,17354,10032,5641,3633,834,137746,96630,35018,16414,164,19606,1429,2130,3395,5197,5300,8962,2015,926,49
Arunachal Pradesh,East Kameng,27.371194055944056,93.04741486013997,247,78690,38775,39915,38449,57,21599,16850,12333,652,37136,36,452,23,27868,190,5318,3583,14503,5215,11713,10487,8852,6213,4510,2330,142,76010,53752,17922,6960,56,4703,494,1068,1626,2156,2405,5600,1261,1029,49
Arunachal Pradesh,East Siang,28.15382352941176,95.06499226006191,251,99214,50116,49098,62576,450,34210,28366,27854,2289,18254,69,776,30,49393,549,14231,4866,19497,9524,9938,13713,13968,10937,9498,6540,525,86662,61993,25334,11802,85,11735,1215,1598,1966,2950,3186,6270,1910,980,63
Arunachal Pradesh,Kurung Kumey,28.04853351800553,93.24531994459834,256,92076,45318,46758,36606,95,20258,16348,4859,471,51189,43,121,81,34158,1154,3911,586,18603,1092,12661,15054,12264,6997,4353,2031,299,96280,64379,20713,6836,148,4066,184,648,1247,1898,2213,8718,1054,1032,40
Arunachal Pradesh,Lohit,27.946785273972623,96.59670770547945,259,145726,76221,69505,83062,312,48380,34682,99020,3846,10684,210,24452,104,7277,133,17157,6549,33599,11372,19306,25179,20643,13070,7612,5180,584,143995,94890,35493,15195,148,17327,1667,2314,3828,5588,5666,8813,1531,912,57
Arunachal Pradesh,Lower Dibang Valley,28.32651730103806,95.76567335640142,258,54080,28053,26027,31849,207,18087,13762,28915,2247,9213,33,2932,19,10393,328,5932,3068,12000,3950,5875,7957,7351,5508,3570,2795,85,47547,35140,13254,5652,34,6143,926,1038,1399,1975,1848,3048,649,928,59
Arunachal Pradesh,Lower Subansiri,27.70849297297297,93.96226108108112,255,83030,41843,41187,54057,381,29470,24587,9551,1482,34402,27,193,13,37085,277,12493,4211,18112,5365,8492,10821,11661,9861,7674,5230,295,71307,55258,20305,7412,55,11232,960,1225,1636,2058,2027,5450,1778,984,65
Arunachal Pradesh,Papum Pare,27.273529716981127,93.54468183962264,248,176573,89182,87391,121048,2477,65794,55254,57027,6148,84397,310,4768,139,22586,1198,30539,22966,20308,30180,15368,21956,21376,20007,17342,13840,926,141175,120592,43812,11856,313,25706,1943,3138,4629,6373,5294,9382,2717,980,69
Arunachal Pradesh,Tawang,27.680683962264148,91.82504245283016,245,49977,29151,20826,26073,96,17720,8353,11842,787,776,1164,34920,72,349,67,8635,3794,10730,2452,4904,4730,4029,2140,1989,1379,667,39041,30709,13849,5399,20,7026,1194,1203,1580,1777,1529,2034,160,714,52
Arunachal Pradesh,Tirap,26.94406229508198,95.41470327868862,254,111975,57604,54371,47974,98,29313,18661,20682,1103,83361,61,778,43,5325,622,16026,3104,18420,6500,13585,16989,12077,7834,4305,2134,182,107734,71785,25669,14423,98,16937,944,1418,1989,2960,3025,6681,2468,944,43
Arunachal Pradesh,Upper Siang,28.8309244897959,95.00155765306124,252,35320,18699,16621,18195,97,10723,7472,5261,411,5643,27,2577,7,20967,427,6198,1504,8569,2182,3952,5584,4915,2935,2211,1349,46,32201,21090,8910,5252,68,4413,795,833,837,934,978,2100,709,889,52
Arunachal Pradesh,Upper Subansiri,28.277196566523585,93.8991435622318,249,83448,41758,41690,45278,139,24807,20471,13474,521,8779,28,297,11,59449,889,5373,3123,14542,4672,10219,16118,15339,10348,8017,4276,473,93154,56054,20055,7230,109,6658,364,1162,1714,2530,2691,6174,906,998,54
Arunachal Pradesh,West Kameng,27.46486582278483,92.65015750452083,246,83947,46155,37792,48492,202,29566,18926,31265,1970,8466,328,36087,71,5556,204,14188,7133,17889,6306,8836,10317,8428,5633,3987,2693,299,65799,53026,22362,8493,66,8253,1439,1689,2447,3294,2768,4146,622,819,58
Arunachal Pradesh,West Siang,28.106296920289843,94.53510344202908,250,112274,58168,54106,64746,303,36777,27969,15881,2218,29969,577,3311,49,60005,264,14204,6115,22272,8503,14227,17675,15908,11441,8418,6030,521,102176,70415,28305,13469,85,15800,1017,1395,1944,2896,3329,7494,2399,930,58
Assam,Barpeta,26.427872264631056,90.97912010178116,303,1693622,867004,826618,897058,2078,499038,398020,492966,1198036,1020,112,49,399,14,1026,84804,50806,447189,52192,210607,307884,300845,121924,87377,46947,8007,1747752,1072312,405046,215355,909,243504,8117,23690,47692,74238,68622,95730,20383,953,53
Assam,Bongaigaon,26.45012521994133,90.6734296187684,319,738804,375818,362986,434078,2523,237114,196964,359145,371033,5924,384,236,871,9,1202,49866,29937,181923,38470,93591,138294,133643,55924,35491,20221,2267,740152,458796,184849,94939,220,84687,4790,10961,23471,34496,27859,39096,9614,966,59
Assam,Cachar,24.815570668693017,92.86849650455927,316,1736617,886284,850333,1174128,5316,639946,534182,1038985,654816,37635,280,341,1673,98,2789,140205,62135,346227,88933,256855,447993,379469,156156,79766,45341,12951,1736438,1048990,444899,241776,952,298041,16072,40838,61055,76457,66319,93340,13962,959,68
Assam,Darrang,26.58463215962442,92.04141338028155,325,928500,475273,453227,487039,1166,268666,218373,327322,597392,1688,431,57,724,19,867,45444,17676,268517,20189,119027,163277,161153,59039,47398,22267,3079,950796,583436,226525,118102,437,95080,5759,13648,28435,42950,35454,50693,11113,954,52
Assam,Dhemaji,27.586533438485816,94.71336908517353,308,686133,351249,334884,423028,1192,237761,185267,655052,13475,8711,297,911,167,6315,1205,28195,16547,211758,16504,79107,138838,136371,80804,55399,28006,2868,716377,434221,169630,82051,231,57995,2272,6031,14583,27022,27785,41922,9944,953,62
Assam,Dibrugarh,27.30612284482757,95.0998282327587,310,1326335,676434,649901,884531,8817,491361,393170,1198401,64526,52968,2261,4673,1055,46,2405,136685,76292,299852,77163,143189,243607,301287,139813,89500,59380,6984,1324504,767147,371864,186774,550,214721,7689,20405,40321,65072,55815,70958,12681,961,67
Assam,Goalpara,26.017277777777807,90.59869891598912,302,1008183,513292,494891,563577,1364,304302,259275,347878,579929,77862,771,194,477,103,969,78641,21455,228610,39504,124700,213510,183904,73683,39885,18294,3464,1032511,650509,239831,117427,416,129311,5075,13846,28639,42030,37705,56821,13429,964,56
Assam,Golaghat,26.377219709794485,93.82583397823468,313,1066888,543161,523727,721764,3073,396475,325289,917426,90312,50582,1131,3863,530,1347,1697,82345,40889,292893,34190,117393,223902,261192,111145,66197,36887,4084,1079697,629153,289085,148244,406,153723,6011,16114,36345,55653,45372,55869,9489,964,68
Assam,Hailakandi,24.457496089385486,92.59154664804475,318,659296,337890,321406,407366,1211,226836,180530,251194,397653,8480,84,490,247,636,512,44143,11035,159215,16202,88596,177984,139029,50056,28504,11608,4265,673348,419921,156243,82841,291,119292,8648,16921,22356,26771,24404,38038,6429,951,62
Assam,Jorhat,26.76244824016563,94.30197722567289,312,1092256,556805,535451,794929,5651,432335,362594,1008219,54684,21051,1540,2378,719,578,3087,122063,71639,286330,80824,99454,201680,295444,128050,97025,62608,8433,1101864,604908,315550,171062,736,155435,7211,18085,38630,59963,45985,53066,10178,962,73
Assam,Kamrup,26.170939452054807,91.58863273972592,321,1517542,778461,739081,995319,3109,550219,445100,877495,601784,33297,319,185,1330,55,3077,122191,70272,390596,43849,163849,290097,353861,154831,118849,55011,6444,1535620,895775,408232,212740,795,180800,6457,17754,40617,75358,68286,79952,16918,949,66
Assam,Karbi Anglong,26.08966454598031,93.11536570271832,314,956313,490167,466146,557214,1923,314253,242961,766000,20290,157789,370,6260,397,3568,1639,53918,18763,215691,37185,109324,212224,199289,93137,40602,18225,3426,986320,618633,233739,103123,818,96932,4739,10667,21086,32646,33361,59266,15226,951,58
Assam,Karimganj,24.69660712250711,92.3679498575498,317,1228686,625864,602822,795297,1933,435942,359355,521962,692489,11990,114,446,524,110,1051,70951,28261,261945,32695,198059,333885,257931,76685,39637,21408,7903,1239293,779850,284368,163990,478,210254,12064,25453,35171,43298,40825,72351,18085,963,65
Assam,Kokrajhar,26.497246635730868,90.13997470997688,300,887142,452905,434237,489305,1218,275220,214085,529068,252271,101091,93,1718,396,123,2382,41373,15089,204896,17115,116899,166013,154715,78788,39571,17287,2733,916607,552671,224715,108956,800,52532,4612,13066,26736,40099,36026,50540,8992,959,55
Assam,Lakhimpur,27.14128805970149,94.0775949253732,307,1042137,529674,512463,683486,1948,375552,307934,797130,193476,46217,412,1074,250,2410,1168,60296,32104,293239,34694,126950,212080,217497,107326,82885,44212,4731,1071358,639385,268872,133615,265,117971,4451,11429,26384,46006,41306,59383,14313,968,66
Assam,Nagaon,26.26462170626351,92.9306191144708,305,2823768,1439112,1384656,1710716,5121,921850,788866,1225246,1563203,26844,3036,1073,1162,61,3143,195631,89206,674999,124186,392616,638088,576214,199792,115864,66994,10351,2873116,1778277,678034,366112,1345,422431,14457,43763,81779,116769,103983,160725,39381,962,61
Assam,Nalbari,26.46323767605632,91.40598521126763,323,771639,396006,375633,531771,1631,293184,238587,491582,277488,429,62,27,1004,9,1038,68313,37849,210706,28238,75866,141690,192771,81507,71734,39368,3693,795589,442061,211320,117809,449,103600,3526,8612,19755,37258,34696,42345,9160,949,69
Assam,Sonitpur,26.73514926829268,92.85197804878044,306,1924110,983904,940206,1108572,4358,620525,488047,1422824,350536,138166,1363,5088,1003,221,4909,133368,70047,483325,64528,216097,416218,377653,141373,90385,49901,6412,1925180,1159991,501239,261648,1232,228882,10246,27709,57488,86521,75945,108021,20969,956,58
Assam,Tinsukia,27.53549291139241,95.69055949367085,309,1327929,680231,647698,798322,5135,453449,344873,1181347,48373,76877,1999,16228,837,395,1873,161718,70471,290704,90910,150893,266717,276292,109805,61040,38152,7353,1327333,799874,352158,175377,520,217556,9188,20339,36547,57086,53835,76134,15254,952,60
Bihar,Araria,26.211528119180603,87.30766554934816,209,2811569,1463333,1348236,1195768,2561,727643,468125,1593525,1207442,4116,371,187,1910,63,3955,43290,17004,659061,44213,625357,426625,206161,112955,68177,39627,6938,3139606,1872943,612012,324091,2523,52549,12500,67876,73656,97412,106781,175194,28036,921,43
Bihar,Aurangabad,24.774291867469877,84.45986024096379,235,2540073,1318684,1221389,1466002,2362,868733,597269,2291133,237353,2218,295,334,775,19,7946,44456,24106,428291,49006,559512,482199,302662,253142,136783,91371,8329,2618129,1626969,564571,340948,7585,84329,6645,23974,27722,47730,62063,143408,75580,926,58
Bihar,Aurangabad,24.774291867469877,84.45986024096379,515,3701282,1924469,1776813,2503837,23258,1430936,1072901,2545438,786677,15991,5142,309093,30981,1005,6955,589477,246324,551789,427343,381695,686271,422964,537936,310762,253253,19101,3431716,2211996,909771,571932,7583,360410,22399,63485,88118,174101,153774,186833,47877,923,68
Maharashtra,Aurangabad,20.0979228832952,75.32072196796334,235,2540073,1318684,1221389,1466002,2362,868733,597269,2291133,237353,2218,295,334,775,19,7946,44456,24106,428291,49006,559512,482199,302662,253142,136783,91371,8329,2618129,1626969,564571,340948,7585,84329,6645,23974,27722,47730,62063,143408,75580,926,58
Maharashtra,Aurangabad,20.0979228832952,75.32072196796334,515,3701282,1924469,1776813,2503837,23258,1430936,1072901,2545438,786677,15991,5142,309093,30981,1005,6955,589477,246324,551789,427343,381695,686271,422964,537936,310762,253253,19101,3431716,2211996,909771,571932,7583,360410,22399,63485,88118,174101,153774,186833,47877,923,68
Bihar,Banka,24.832355642023337,86.8664916342413,225,2034763,1067140,967623,965321,1704,590961,374360,1772655,250925,6138,139,113,94,1035,3664,62359,15459,425604,18492,408188,386707,196305,120653,63103,35767,3922,2094476,1291235,462080,278863,2585,46555,6776,32221,41314,65753,74513,128170,31266,907,47
Bihar,Begusarai,25.54302613168723,86.12560144032932,222,2970541,1567660,1402881,1548673,4644,918507,630166,2554330,407348,2209,402,229,276,57,5690,120373,49493,594377,139248,577601,484502,291877,207136,144783,101836,14599,3064885,1951688,644874,369996,3983,186662,13797,71413,73578,101080,112067,184650,39525,895,52
Bihar,Bhagalpur,25.277192885375477,87.04213814229242,224,3037766,1615663,1422103,1573066,6764,937669,635397,2487866,537098,3556,415,180,1050,32,7569,174534,63241,522527,130634,614644,524322,300767,247079,154643,118843,16119,3116132,1952879,674660,397654,12573,189954,9815,49203,63325,96431,105148,191216,48168,880,52
Bihar,Bhojpur,25.50666439393939,84.49407803030304,231,2728407,1430380,1298027,1599151,3661,973486,625665,2518216,197819,2165,544,647,1472,48,7496,62153,45763,434559,77368,581580,605307,367059,313509,163303,131137,10630,3177665,1722387,613072,387389,5559,112983,8370,25259,29472,49809,63618,150381,88646,907,59
Bihar,Buxar,25.48593018867924,84.08808081760995,232,1706352,887977,818375,989807,1784,593544,396263,1591454,105423,2125,248,5090,97,57,1858,46760,27362,299252,35405,331675,420187,256124,178044,89306,64117,5224,1802491,1074754,375372,253998,2228,64826,4625,15443,18203,30535,40198,96849,56545,922,58
Bihar,Darbhanga,26.146187719298258,85.97387352472099,215,3937385,2059949,1877436,1816634,6280,1125566,691068,3042729,881476,3534,832,245,236,101,8232,127442,59510,907174,95539,672797,490534,332382,224622,152540,129597,26073,4231743,2535344,865971,529314,6756,202524,18736,97067,102760,141310,151930,249637,44346,911,46
Bihar,Gaya,24.7266541547278,84.94291217765044,236,4391418,2266566,2124852,2297613,6856,1368803,928810,3876395,488121,3943,913,870,1723,108,19345,112617,57738,696289,111282,902272,757690,447480,342254,191824,131163,12047,4738098,2810026,936630,537333,107429,167232,10388,43065,51094,86740,114166,262055,122997,937,52
Bihar,Gopalganj,26.44874364161851,84.34636127167629,217,2562012,1267666,1294346,1382998,3707,793905,589093,2119262,436057,2463,271,167,133,28,3631,69375,31193,515925,38133,540603,470828,291624,223776,123249,79109,7690,2714598,1642807,546202,370662,2341,84425,7841,23345,29960,49267,65861,157982,87471,1021,54
Bihar,Jamui,24.78418380462726,86.26316298200514,238,1760405,916064,844341,858588,1839,534385,324203,1525746,217621,8443,162,159,87,3438,4749,32633,12984,325909,30851,420472,317612,153973,104211,56137,29633,3439,1850774,1135919,392052,227016,5418,45733,5498,25310,30414,47218,55092,102930,41829,922,49
Bihar,Jehanabad,25.155679045643165,84.9208124481328,239,1125313,585582,539731,618881,1106,374412,244469,1045117,75742,691,148,248,60,58,3249,27641,15507,186660,28132,211761,165906,117558,112966,68748,45519,3539,1221874,714244,254582,155106,1381,50439,3148,11836,14459,24518,30599,65873,31213,922,55
Bihar,Katihar,25.56565356037151,87.70466083591326,212,3071029,1600430,1470599,1280190,2941,762256,517934,1684589,1365645,8659,2754,212,507,2141,6522,60900,32570,668232,69838,472616,444260,237243,133811,88498,57114,11896,3150989,2054202,660403,353483,2941,108018,20222,71206,83087,105287,108736,190893,37632,919,42
Bihar,Khagaria,25.53558891454964,86.56593256351037,223,1666886,883786,783100,768028,1580,461153,306875,1486989,175588,1253,143,79,86,115,2633,40641,15401,373696,21007,350601,233494,130004,100555,65931,38697,5969,1828574,1114645,355531,195796,914,78061,5547,39429,40886,53562,60276,109253,18748,886,46
Bihar,Kishanganj,26.324336758321294,87.95045007235886,210,1690400,866970,823430,745056,1093,439921,305135,531236,1149095,5783,398,183,1476,28,2201,58718,11715,401793,43357,356401,235779,89025,42778,25989,15386,3761,1714516,1139615,361114,188447,1224,34858,12920,37799,44945,53447,55440,108403,22757,950,44
Bihar,Lakhisarai,25.183449321266963,86.12825701357468,227,1000912,526345,474567,507270,1186,305182,202088,956396,40886,487,140,52,78,52,2821,44491,12938,175882,31763,172076,149312,111684,85807,48001,27261,3814,1048922,650642,218840,130655,775,52316,2515,10049,12890,22380,28867,62457,25272,902,51
Bihar,Madhepura,25.77341929460581,86.8978443983403,213,2001762,1047559,954203,834577,1397,517666,316911,1753829,241760,1342,170,60,133,81,4387,23236,12302,486278,24000,340813,189431,114474,99437,79891,44955,6509,2077788,1311771,444235,242382,3374,52388,6090,46102,52354,72963,77776,126649,19067,911,42
Bihar,Madhubani,26.41380538172716,86.16328360450552,207,4487379,2329313,2158066,2155338,5319,1340085,815253,3652168,818912,3262,564,328,442,169,11534,113281,47090,1047552,41234,783888,771417,520875,303114,170563,137780,11352,4702068,2860455,1009424,611899,5601,166993,20753,102414,108433,157322,175465,278421,58731,926,48
Bihar,Munger,25.198537962962963,86.54173672839504,226,1367765,729041,638724,801817,2653,473741,328076,1252319,110416,1815,338,95,145,61,2576,90461,49141,222281,85782,226699,158699,146414,147152,101907,64469,4394,1348410,860147,316713,188319,2586,102385,4944,23445,30778,47936,52077,85773,18796,876,59
Bihar,Muzaffarpur,26.18664417177915,85.32745092024543,216,4801062,2527497,2273565,2509232,10290,1487117,1022115,4032773,745546,5149,933,288,382,98,15893,180651,87796,998694,120700,1092952,743623,419433,299475,194920,138916,14475,4828232,3016735,1079189,697108,8030,256532,22443,104046,114417,164807,179976,297357,64817,900,52
Bihar,Nalanda,25.229345508982053,85.48053113772461,229,2877653,1497060,1380593,1519933,4156,919558,600375,2669775,198033,1978,393,414,561,64,6435,101378,43761,514141,102522,581978,486266,320839,274556,177358,133032,11159,3309573,1829128,642197,403129,3199,149675,9824,33798,39387,68723,83371,175870,76349,922,53
Bihar,Nawada,24.825708836206903,85.61594568965519,237,2219146,1144668,1074478,1091012,1841,659474,431538,1964620,244394,1299,250,176,279,80,8048,31162,20522,379551,45323,601011,368649,195072,161127,95943,64585,3130,2580956,1440781,485628,288805,3932,77297,5117,19722,23197,40493,54284,132750,71186,939,49
Bihar,Pashchim Champaran,27.16064352201258,84.30265911949685,203,3935042,2061110,1873932,1759481,3495,1091226,668255,3047427,865090,8469,926,1337,296,1895,9602,57546,38414,839514,96620,1053481,543965,250243,159563,98732,70669,6035,3893566,2544205,888205,497793,4839,112382,18044,66944,70446,102964,126010,249111,74546,909,45
Bihar,Patna,25.40297114503818,85.3198433587787,230,5838465,3078512,2759953,3459679,40692,2028047,1431632,5356075,439952,12551,4803,1062,2151,203,21668,546859,321307,657991,552103,1244842,1095655,920051,698351,463361,452340,46126,7511199,3626564,1382654,815638,13609,507581,17629,60489,83095,153095,175456,328240,139437,897,59
Bihar,Purba Champaran,26.68129336734693,85.00382155612242,204,5099371,2681209,2418162,2276957,7719,1407603,869354,4086453,990349,4865,668,878,464,104,15590,74979,52358,1142260,101565,1280809,982506,450631,241118,121594,68781,5149,5293345,3316422,1122340,648009,12600,179522,20306,110085,115248,155286,176594,329859,76925,902,45
Bihar,Purnia,25.81714801901739,87.40447606973065,211,3264619,1699370,1565249,1332326,4170,805261,527065,1989420,1255641,7989,614,353,1450,650,8502,86058,33688,712847,85749,668690,360243,184327,119259,83226,59996,11116,3285643,2155512,696556,372692,39859,87774,17045,75176,82784,107266,113962,205154,39326,921,41
Bihar,Rohtas,24.99170460829495,83.9350762672811,234,2959918,1543546,1416372,1799832,4594,1061783,738049,2645415,300487,2889,2569,1584,252,537,6185,114893,41659,512383,95678,535187,548971,399053,333053,194928,161555,16006,3065196,1875174,673742,407193,3809,128652,8103,27143,32977,57298,75928,166881,87548,918,61
Bihar,Saharsa,25.821270696721303,86.54670819672135,214,1900661,997174,903487,804996,1668,506374,298622,1629254,266620,1292,197,60,109,8,3121,41342,21651,432651,38046,348300,194897,104182,90182,64560,47051,6016,2006537,1249692,415863,233870,1236,61597,5742,39031,43608,64222,71272,122491,21846,906,42
Bihar,Samastipur,25.793205563909765,85.94833323308269,221,4261566,2230003,2031563,2142880,5379,1293575,849305,3800598,452370,2126,554,292,231,112,5283,88021,46123,1012979,43486,781038,710468,438908,284082,186153,129933,19126,4546359,2766930,913339,568812,12485,159459,19043,94848,100052,142305,162478,274280,57347,911,50
Bihar,Saran,25.89656077844312,84.82266287425155,219,3951862,2022821,1929041,2157454,4509,1285767,871687,3534772,406449,2330,371,229,322,107,7282,94787,51822,701323,76299,793945,693465,433759,361171,213251,148065,9848,3967204,2516115,847031,585386,3330,137526,13380,38867,47876,77631,101370,238266,124352,954,55
Bihar,Sheikhpura,25.12472436548223,85.77839390862943,228,636342,329743,306599,328676,631,196431,132245,596102,37653,313,75,41,43,31,2084,20065,6803,108293,24345,129673,110525,59529,52860,33856,19676,3399,715127,413475,136898,85045,924,30019,1918,6427,7547,12786,16568,39065,19437,930,52
Bihar,Sheohar,26.458380748663107,85.29539411764709,205,656246,346673,309573,283698,478,171645,112053,552492,99342,522,216,73,52,44,3505,10004,3983,158484,7516,128209,91277,37063,25657,16031,10091,661,657067,421241,139909,93398,1698,30398,6732,26938,22278,25002,24466,39484,3989,893,43
Bihar,Sitamarhi,26.56570069686413,85.61172491289203,206,3423574,1803252,1620322,1436794,3460,885188,551606,2672311,740101,2897,261,253,188,20,7543,66263,39465,807294,49670,733380,394422,196321,136500,92783,70549,11936,3488656,2206340,739982,449035,28217,152392,23067,113986,102555,125274,129240,210775,28186,899,42
Bihar,Siwan,26.1736372013652,84.33766552901022,218,3330464,1675090,1655374,1930175,3834,1115906,814269,2712635,608282,2618,369,407,359,86,5708,52935,42384,632514,41858,689880,612635,445257,355277,186817,119164,12091,3628240,2115448,713597,498299,3120,124672,10879,31553,39746,65249,86278,203685,107489,988,58
Bihar,Supaul,26.28157893772896,86.78496465201461,208,2229076,1155283,1073793,1033283,1845,647672,385611,1809936,409251,3758,271,136,546,42,5136,51028,12111,572287,27815,467768,269737,157787,99530,69665,45726,5850,2336331,1453438,495020,277610,3008,47753,7736,46159,53452,80317,89701,141160,22279,929,46
Bihar,Vaishali,25.8134703180212,85.39247597173153,220,3495021,1844535,1650486,1926740,4810,1152576,774164,3152346,333980,2203,707,362,246,71,5106,70001,47300,699317,51494,810191,487594,370247,291392,178320,124448,9094,3750438,2176701,759132,486032,73156,171904,10568,51344,61291,101129,122845,217871,67578,895,55
Chandigarh,Chandigarh,30.7426,76.75872465753424,55,1055450,580663,474787,805438,44283,465346,340092,852574,51447,8720,138329,1160,1960,246,1014,231204,168344,8911,289456,80406,118667,114209,124707,98786,174528,20188,915756,602411,303748,148945,346,206017,15220,24396,36024,64040,44396,43001,7984,818,76
Chhattisgarh,Bastar,19.393866751269048,81.52895126903546,414,1413199,698487,714712,650863,1782,382335,268528,1277975,12413,27951,2099,985,3466,86925,1385,157646,22075,316425,54894,183667,178766,139330,60936,57413,32895,3227,1385784,864272,358157,189569,1201,62326,14805,39505,45757,58138,57316,81784,9502,1023,46
Chhattisgarh,Bilaspur,22.356942982456143,81.99770350877188,30,381956,192764,189192,287620,1574,155599,132021,371973,6984,236,2387,113,10,7,246,79146,17262,152458,11987,35817,59489,53515,64730,45695,25474,3241,353825,193671,107367,80497,421,56814,3819,6685,9924,21119,15862,18706,4338,981,75
Chhattisgarh,Bilaspur,22.356942982456143,81.99770350877188,406,2663629,1351574,1312055,1596560,8566,932474,664086,2540763,57973,20745,6373,2979,2357,29122,3317,519704,77727,549632,188174,382091,407692,337793,189296,152838,134637,19654,2567113,1625484,655032,380114,2999,171271,36885,84460,88162,118976,114051,148587,24774,971,60
Himachal Pradesh,Bilaspur,31.3780422907489,76.65316079295157,30,381956,192764,189192,287620,1574,155599,132021,371973,6984,236,2387,113,10,7,246,79146,17262,152458,11987,35817,59489,53515,64730,45695,25474,3241,353825,193671,107367,80497,421,56814,3819,6685,9924,21119,15862,18706,4338,981,75
Himachal Pradesh,Bilaspur,31.3780422907489,76.65316079295157,406,2663629,1351574,1312055,1596560,8566,932474,664086,2540763,57973,20745,6373,2979,2357,29122,3317,519704,77727,549632,188174,382091,407692,337793,189296,152838,134637,19654,2567113,1625484,655032,380114,2999,171271,36885,84460,88162,118976,114051,148587,24774,971,60
Chhattisgarh,Dhamtari,20.554912627291245,81.7569195519348,412,799781,397897,401884,546833,1016,303924,242909,777188,10425,2644,1196,667,3612,3685,364,148926,14568,168689,41792,143128,148544,120146,65196,58875,31319,5096,786941,461125,213021,125429,206,50033,9725,17441,19469,35418,37172,40160,8893,1010,68
Chhattisgarh,Durg,21.194463849287164,81.33181639511197,409,3343872,1682101,1661771,2303378,16141,1284612,1018766,3129745,83499,24304,24276,19587,17209,42569,2683,614109,129193,533448,349741,463598,573291,497668,309508,286244,202424,30555,3186789,1919832,898241,523656,2143,228551,34096,69172,82012,148385,145306,172192,41838,988,69
Chhattisgarh,Jashpur,22.77286167664669,83.8703962075848,402,851669,424747,426922,495415,567,280656,214759,629509,15336,189588,474,467,694,14835,766,76783,6628,205670,20722,120768,137681,127299,64188,50562,26161,3166,858263,488965,214455,148100,149,27142,9440,24667,26333,36438,36562,50726,6361,1005,58
Chhattisgarh,Korba,22.491712499999995,82.57604326923074,404,1206640,612915,593725,748759,4544,433391,315368,1133176,30195,21059,3666,897,753,15649,1245,202380,43357,206598,126055,178191,188303,168387,89167,83166,61215,11792,1190407,729708,309479,166959,494,77854,17260,37958,42526,58842,51818,61531,7136,969,62
Chhattisgarh,Koriya,23.50412776859501,82.12515636363635,400,658917,334737,324180,397823,1667,229923,167900,604259,25878,9398,1391,84,1155,15474,1278,80023,25605,121852,59763,143413,109639,87969,47127,38677,26802,4134,637400,399581,165022,94073,241,35636,9604,22348,23034,30622,28115,34136,4216,968,60
Chhattisgarh,Mahasamund,21.223727037773354,82.65925427435384,411,1032754,511967,520787,637963,961,364089,273874,1008061,12570,5284,2941,521,1495,1417,465,212487,13200,274793,35774,179770,194739,152183,78583,57949,33357,5951,1087296,582544,272009,177826,375,48150,16490,38904,37513,58094,48121,50550,6832,1017,62
Chhattisgarh,Raigarh,22.008265068493166,83.27797698630134,403,1493984,750278,743706,951639,3342,542756,408883,1422986,17332,47653,2117,781,409,1782,924,297308,27771,354278,66638,246480,260661,210964,130700,93340,66358,8804,1477473,841958,398257,253488,281,69909,26345,59487,57004,79603,64334,67366,7525,991,64
Chhattisgarh,Raigarh,22.008265068493166,83.27797698630134,520,2634200,1344345,1289855,1939994,38570,1059692,880302,2239370,227465,17452,7477,121791,12260,1159,7226,547206,328277,581868,377160,231263,407662,335886,441072,221410,204507,19940,2344160,1414154,748339,462741,8966,369857,32108,68582,94793,157065,110939,109995,23032,959,74
Maharashtra,Raigarh,18.453257637845976,73.0090609418579,403,1493984,750278,743706,951639,3342,542756,408883,1422986,17332,47653,2117,781,409,1782,924,297308,27771,354278,66638,246480,260661,210964,130700,93340,66358,8804,1477473,841958,398257,253488,281,69909,26345,59487,57004,79603,64334,67366,7525,991,64
Maharashtra,Raigarh,18.453257637845976,73.0090609418579,520,2634200,1344345,1289855,1939994,38570,1059692,880302,2239370,227465,17452,7477,121791,12260,1159,7226,547206,328277,581868,377160,231263,407662,335886,441072,221410,204507,19940,2344160,1414154,748339,462741,8966,369857,32108,68582,94793,157065,110939,109995,23032,959,74
Chhattisgarh,Raipur,20.88603153846152,82.20032759615388,410,4063872,2048186,2015686,2629749,20261,1493158,1136591,3881485,103038,23181,16707,8397,17137,10680,3247,728556,166505,673499,395001,618508,664470,552373,313247,267265,227382,31483,3922162,2454299,1038155,560184,11234,267090,42202,100127,114073,175768,172554,209786,46557,984,65
Chhattisgarh,Surguja,23.32719278728607,83.23582493887531,401,2359886,1193129,1166757,1187941,2737,694686,493255,2126195,81442,97432,2303,1287,623,48295,2309,253131,29433,525596,65167,364452,338509,281260,135374,105992,64607,9524,2291584,1441436,561915,355077,1458,130736,26048,74481,71885,99309,99792,135326,13725,978,50
Daman and Diu,Daman,20.431616666666677,72.8392366071429,495,191173,124659,66514,150348,1316,104316,46032,171537,16087,2618,169,216,244,79,223,49249,25844,10006,61073,8957,28094,30406,26991,14170,9128,1995,140382,122589,52868,15428,288,40951,3397,8211,10433,12523,7442,6389,1297,534,79
Daman and Diu,Junagadh,20.72568199498111,70.83985639899612,479,2743082,1404356,1338726,1842818,6628,1046981,795837,2397056,334858,2586,1110,1291,3841,77,2263,498326,144561,489237,287506,271762,700258,294811,311849,137505,139957,30127,2555291,1527888,749156,461650,4388,313730,15483,42703,55458,112463,108938,151329,40300,953,67
Gujarat,Junagadh,20.929523011609785,70.54733890140345,479,2743082,1404356,1338726,1842818,6628,1046981,795837,2397056,334858,2586,1110,1291,3841,77,2263,498326,144561,489237,287506,271762,700258,294811,311849,137505,139957,30127,2555291,1527888,749156,461650,4388,313730,15483,42703,55458,112463,108938,151329,40300,953,67
Goa,North Goa,15.548723418714054,73.80667997909038,585,818008,416677,401331,663060,23440,351738,311322,622213,57941,134169,618,553,546,166,1802,173951,132612,115859,209230,40968,101521,148792,153887,87513,86781,16601,735601,380926,260533,175035,1514,140924,9322,19791,33201,48962,31899,28595,7315,963,81
Goa,South Goa,15.195278658183785,73.941792596877,586,640537,322463,318074,502427,17624,264085,238342,341664,63623,231961,855,542,563,92,1237,138810,102191,88620,162873,29874,73039,119869,108989,64786,57460,9579,552173,314480,194872,130605,580,116414,7659,16552,26670,38349,25654,23123,5721,986,78
Gujarat,Ahmadabad,22.605425564971743,72.23898135593227,474,7214225,3788051,3426174,5435760,126341,3025463,2410297,6042416,883238,50754,14542,4518,209287,2055,7415,1456046,965017,353169,1845383,761358,1614370,805199,1135058,549188,839295,100831,6934861,3952858,2043895,1198152,19320,1241055,50790,131943,210889,375703,294359,349856,81116,904,75
Gujarat,Amreli,21.04832649310872,71.43457637825426,480,1514190,771049,743141,995459,2538,558180,437279,1410463,99105,919,415,243,2053,40,952,273331,80378,313714,116899,230474,412251,120625,149478,66785,50999,8582,1419789,836343,389892,282409,5546,173045,9403,31254,27345,51661,59076,94707,20625,964,66
Gujarat,Anand,22.282718206229863,72.57782051557454,482,2092745,1087224,1005521,1551253,9902,874481,676772,1798794,250919,29789,1524,267,8591,142,2719,378310,147122,413078,208909,257524,560542,229013,283571,127459,110351,20487,1949453,1134962,585093,366419,6271,230571,18243,39860,52344,94775,84504,110412,27026,925,74
Gujarat,Banas Kantha,24.258538965517253,71.93205252873561,469,3120506,1610379,1510127,1704923,3424,1048402,656521,2890305,213505,1686,486,281,12659,83,1501,396873,84832,666773,137424,366867,859436,159433,226765,105372,66950,14451,3006650,1984701,738412,394793,2600,146022,12201,33643,47925,96516,116071,207431,47341,938,55
Gujarat,Bharuch,21.75787276237761,72.67326346710801,488,1551019,805707,745312,1118276,10257,623047,495229,1188204,343511,9494,1733,442,4813,342,2480,309091,121542,300677,181319,161675,367060,164765,188539,83895,74380,16036,1330179,844298,442523,254728,9470,204943,15944,34619,45366,78625,66919,76472,17153,925,72
Gujarat,Bhavnagar,21.70219390341736,72.16272632761141,481,2880365,1490201,1390164,1887255,7297,1087371,799884,2632574,212863,3457,1410,445,26974,127,2515,500757,171327,387251,356826,422461,929286,266953,281250,96241,93391,13946,2612192,1708938,720241,445121,6065,292210,16604,48849,48541,93364,111190,177277,46639,933,66
Gujarat,Gandhinagar,23.193679790026252,72.67221679790026,473,1391753,723864,667889,1030494,12107,582686,447808,1319586,57273,3237,1985,497,6405,82,2688,262539,132683,237624,195634,136131,363156,133594,196456,95730,108400,16088,1296548,769329,391862,224886,5676,171166,11995,25521,35462,69002,59070,71905,14245,923,74
Gujarat,Jamnagar,22.410600414263328,69.62062005768233,477,2160119,1114192,1045927,1396534,11573,795140,601394,1810443,320805,4392,1873,1086,18856,136,2528,386538,142974,347158,299167,255785,491009,194057,199634,74029,87523,18573,1823483,1220598,576319,358455,4747,242841,13674,39434,50008,90161,84991,117869,28199,939,65
Gujarat,Kachchh,23.48057203301311,68.82192301497916,468,2092371,1096737,995634,1252319,9631,739239,513080,1608921,442355,6192,6353,490,25312,98,2650,403294,140067,488293,250982,246956,469402,141345,157284,61366,60386,14062,1732753,1278604,524052,286086,3629,280257,25293,53172,60591,87578,81108,115066,21953,908,60
Gujarat,Kheda,22.88765312500002,73.018803515625,483,2299885,1185727,1114158,1660243,5710,942480,717763,2000884,264482,26629,1403,300,3479,82,2626,372226,99982,461479,160547,295057,641541,250044,310341,148530,84223,19498,2231312,1260660,628221,388646,22358,172599,19249,42567,52793,99926,91976,127957,27666,940,72
Gujarat,Mahesana,23.529355452865065,72.45545194085031,471,2035064,1056520,978544,1502645,7759,847499,655146,1885732,136431,1954,1082,146,7087,88,2544,385609,180985,476005,183738,260278,467128,183468,266108,139208,130723,27391,1908801,1119451,554432,357578,3603,232825,18735,40893,47276,95739,89721,114271,19272,926,74
Gujarat,Narmada,21.70666386292833,73.68403208722742,487,590297,301086,289211,370336,576,211767,158569,559848,22600,4413,147,80,373,2078,758,101940,12997,138121,22248,76197,146661,58188,52687,28396,14748,3451,573108,336830,157910,93466,2091,27223,5372,13957,13858,23725,24833,34560,5734,961,63
Gujarat,Navsari,20.866973318871995,72.86184869848157,490,1329672,678165,651507,1001909,6726,539471,462438,1225087,78669,5733,2459,601,13386,2823,914,267679,114620,267739,141417,145678,266733,140235,190861,112460,85041,26012,1228976,673014,390349,258957,7352,168150,13415,29950,41648,78432,57528,61357,11846,961,75
Gujarat,Panch Mahals,22.80435606837605,73.61984598290586,484,2390776,1226961,1163815,1440805,3456,858054,582751,2220974,158513,2863,662,337,5236,131,2060,398937,59096,463363,104238,255905,601358,205420,283648,139773,71810,17958,2357454,1421859,599925,363391,5601,121676,16379,37573,43567,78388,84136,145983,40720,949,60
Gujarat,Patan,23.80634198473284,71.75162977099237,470,1343734,694397,649337,837913,2231,494631,343282,1194745,142797,916,337,66,3602,66,1205,223424,66310,301483,102655,168990,364667,78731,129584,57494,46355,11111,1309823,786357,341381,213465,2531,123977,10572,24509,28077,51706,55550,83195,15565,935,62
Gujarat,Porbandar,21.55092351651571,69.71896987722886,478,585449,300209,285240,393678,1653,221621,172057,549749,33565,500,248,91,515,38,743,117040,41686,96015,87557,50588,150643,71637,63458,25119,22458,5260,526282,314886,163777,105638,1148,72287,5244,12192,15729,29784,25660,30207,5953,950,67
Gujarat,Rajkot,22.40603377715488,70.83679439383323,476,3804558,1974445,1830113,2725056,21785,1514075,1210981,3397406,361388,5478,1918,1170,33591,269,3338,747352,362140,459474,721532,383780,913928,402240,540278,204306,266295,29924,3479411,2080568,1052871,659576,11543,543342,24044,70528,100983,189220,156491,199955,41410,927,72
Gujarat,Sabar Kantha,23.71803594548552,73.13638790459964,472,2428589,1244231,1184358,1578734,5262,918625,660109,2260560,148563,6375,614,168,11110,52,1147,438606,99037,544024,121509,214062,597667,211423,333650,198963,110817,24745,2356385,1393131,630963,400905,3590,182583,17669,39155,49284,98430,99728,145124,29107,952,65
Gujarat,Surat,21.25761372772093,72.93488716344339,492,6081322,3402224,2679098,4571410,55694,2687468,1883942,5260193,660772,21052,5703,12902,112835,3920,3945,1252452,815423,369840,1529998,566242,1332690,807021,896927,433651,379505,79862,5438048,3563443,1740746,723415,53718,1103767,48229,126211,193437,340984,254274,276610,59925,787,75
Gujarat,Surendranagar,22.82672007299272,71.48358740875906,475,1756268,909917,846351,1093626,2975,643221,450405,1620282,109681,1419,512,312,22992,128,942,302068,77857,340788,159810,234873,482679,165406,172947,61164,58389,14501,1683386,1033435,439352,280582,2899,120741,13171,33356,32661,64199,69867,105628,23455,930,62
Gujarat,The Dangs,20.801633877551023,73.6883518367347,489,228291,113821,114470,140968,137,77314,63654,203545,3593,20029,69,32,39,560,424,29794,2029,52102,7516,43639,59954,17736,14872,7560,3490,2215,240626,146095,51821,30027,348,13736,1167,4199,4086,7676,9905,17224,4191,1006,62
Gujarat,Vadodara,22.26133739279589,73.49433010291594,486,4165626,2153736,2011890,2893080,53606,1614087,1278993,3713941,384579,23813,9340,2069,27650,1124,3110,798277,411734,547454,692971,396624,865726,457662,504732,268451,314960,60177,3778551,2213474,1190041,733710,28401,543474,35169,87480,124359,212808,165191,206020,49094,934,69
Gujarat,Valsad,20.44238231644259,72.9148584798345,491,1705678,887222,818456,1170657,11020,655528,515129,1571147,94034,19661,1589,913,13809,1417,3108,329218,137209,262410,235981,165459,303197,171712,212318,123281,90912,26987,1499794,944532,485874,259906,15366,170861,15275,35681,51136,88946,68650,84074,18166,922,69
Haryana,Ambala,30.3503672316384,76.94970310734456,70,1128350,598703,529647,818025,12899,461288,356737,955096,22143,3705,138202,381,4845,110,3868,199681,121622,175365,139891,89558,170110,161844,163544,97980,91472,18727,1015266,617859,308126,201685,680,142922,5230,13528,22812,51168,46914,54266,14153,885,72
Haryana,Bhiwani,28.728868064516128,76.02110225806452,81,1634445,866672,767773,1069871,5292,643158,426713,1611031,15515,873,2401,254,1016,26,3329,266244,88938,357047,99235,186145,223049,198307,218631,148995,104875,13786,1553152,964960,405760,261428,2297,175689,5367,16409,30859,75191,69554,88960,22472,886,65
Haryana,Faridabad,28.14873109756098,77.32718536585368,88,1809733,966110,843623,1272739,43437,734940,537799,1588407,161680,9743,34572,640,4883,249,9559,333171,258422,87700,382981,137902,220384,198551,282666,178846,259933,27864,1652713,1095602,481318,231029,1784,296399,10026,24687,42722,84281,74454,94686,22210,873,70
Haryana,Fatehabad,29.57298318584072,75.54608716814157,78,942011,495360,446651,557578,3210,327471,230107,779243,8360,996,150969,171,1172,530,570,153301,51693,203020,55360,103541,136663,99948,93526,61476,37741,9504,886933,555745,237009,147469,1788,134586,3026,9731,17216,41231,41504,51558,11828,902,59
Haryana,Gurgaon,28.043894789579163,77.01935130260523,86,1514432,816690,697742,1111116,67087,638666,472450,1408801,70842,9725,15097,944,7451,254,1318,305751,238359,141703,381988,126920,177453,175370,219200,150120,233402,41366,1387551,875531,428101,210307,493,271169,15610,33002,48505,81885,58685,66325,16630,854,73
Haryana,Hisar,29.23628731117825,75.84324682779452,80,1743931,931562,812369,1114311,10132,670200,444111,1701061,21650,1945,12270,334,3620,33,3018,285004,110495,302013,154113,197303,230074,194595,202792,144626,105346,19031,1599018,1017830,456536,265109,4456,231144,5846,17116,32391,80345,76015,91914,21419,872,64
Haryana,Jhajjar,28.59651868131869,76.61137142857145,83,958405,514667,443738,676091,5034,399480,276611,945693,8247,734,1042,105,645,22,1917,168558,70149,211816,78328,90737,109829,115794,145258,97457,58826,9387,828316,549975,245095,162356,979,123545,3807,10084,19716,45175,40725,50636,13257,862,71
Haryana,Jind,29.45149821958457,76.29598575667653,77,1334152,713006,621146,832758,5263,502049,330709,1276669,23016,889,29103,172,2594,56,1653,222462,78386,278335,89665,136892,185626,151682,154773,107994,64599,14277,1235467,784085,335704,213478,885,146428,4228,13046,23783,55033,55240,73299,19953,871,62
Haryana,Kaithal,29.96068539094649,76.37698930041155,73,1074304,571003,503301,646529,3724,385782,260747,974520,8232,1769,87558,265,351,70,1539,187349,62668,231091,75696,119345,158239,124682,117753,82297,51043,9111,1032339,630194,265813,176320,1977,126896,3676,11442,19624,45618,46262,59344,14255,881,60
Haryana,Karnal,29.703200647249204,76.87488025889972,74,1505324,797712,707612,978013,11163,564516,413497,1341002,31650,2049,126207,532,1516,49,2319,267223,143133,292682,135920,155839,231354,188040,183590,124790,101387,19186,1433406,884972,380409,234684,5259,215989,5761,17461,29082,66304,66391,81876,17676,887,65
Haryana,Kurukshetra,30.05652659846548,76.78774680306903,72,964655,510976,453679,646893,7356,370828,276065,805175,15970,1943,140395,214,375,106,477,171908,90150,203553,88268,94530,145392,118107,120790,81964,71007,10999,909427,552034,250830,160216,1575,136321,3540,11148,18809,43935,41371,48824,11764,888,67
Haryana,Mahendragarh,28.1352161458333,76.14018072916659,84,922088,486665,435423,630255,2624,380440,249815,913251,5660,301,1737,75,644,15,405,135455,45359,223726,44216,94273,135849,126291,132765,94245,60296,10353,899674,530000,229392,161258,1438,74605,2971,8947,17146,39036,35309,49530,15586,895,68
Haryana,Panchkula,30.700897142857134,76.97173238095236,69,561293,299679,261614,405318,18615,229862,175456,490702,23451,2583,40951,1008,1626,90,882,103455,69687,70895,93656,45607,73584,60177,69163,48306,83256,8466,507781,309078,157076,93606,1533,77967,4053,9104,14305,28779,22528,25585,5882,873,72
Haryana,Panipat,29.34352134146342,76.92895914634147,75,1205437,646857,558580,786599,10024,464136,322463,1083936,86622,2261,25064,289,4647,99,2519,209965,121846,173502,153804,118873,170565,143466,141473,91756,75774,10977,1049096,739075,298764,167244,354,176766,4783,13209,23156,50265,50152,65067,13756,864,65
Haryana,Rewari,28.19164714828897,76.55956007604564,85,900332,474335,425997,636947,5121,375453,261494,889133,5713,701,1804,202,1525,12,1242,152651,62667,199449,69305,81280,120860,122617,139646,95807,65143,9820,842000,518747,230704,150557,324,100436,3879,10224,18914,42148,36171,45917,11875,898,71
Haryana,Rohtak,28.892517647058817,76.53123235294117,82,1061204,568479,492725,747582,8482,436025,311557,1043887,8185,732,3916,200,3491,24,769,193120,94633,175203,131739,117097,150903,140782,168499,109596,100346,21134,1057152,605741,269354,185685,424,147990,4261,11498,21602,50316,46126,55628,13502,867,70
Haryana,Sirsa,29.63583446327684,74.90970480225988,79,1295189,682582,612607,782897,6287,456968,325929,940255,9524,2186,338962,370,2256,624,1012,215527,70538,245476,93316,141766,201349,153263,134559,83373,61620,16698,1204981,750228,334344,208185,2432,215371,4202,13126,23790,57070,54200,70339,17490,897,60
Himachal Pradesh,Chamba,32.66741814595661,76.39354063116366,23,519080,261320,257760,323842,1615,186064,137778,479782,32455,1559,2745,1740,57,14,728,96082,21458,186395,13836,56272,96789,67653,64515,40440,15506,3252,499002,306555,130606,81566,353,52553,5229,6765,10046,20811,21669,31977,5475,986,62
Himachal Pradesh,Hamirpur,31.67668481012659,76.49767088607594,28,454768,217070,237698,358091,2521,180555,177536,449412,3711,243,591,95,293,9,414,104120,34978,196116,15232,37327,71107,72114,91184,64363,35620,5263,449529,224044,123941,106641,142,93858,6218,11549,16803,27573,19977,19251,3697,1095,79
Himachal Pradesh,Hamirpur,31.67668481012659,76.49767088607594,168,1104285,593537,510748,653299,1196,408125,245174,1010014,91269,814,196,74,41,273,1604,55929,20175,256081,55300,159593,238344,211029,103334,59914,59612,4094,1200768,660774,260368,181109,2034,68771,7811,17299,17595,31830,39087,73892,22044,861,59
Uttar Pradesh,Hamirpur,25.738158381502892,79.82619479768789,28,454768,217070,237698,358091,2521,180555,177536,449412,3711,243,591,95,293,9,414,104120,34978,196116,15232,37327,71107,72114,91184,64363,35620,5263,449529,224044,123941,106641,142,93858,6218,11549,16803,27573,19977,19251,3697,1095,79
Uttar Pradesh,Hamirpur,25.738158381502892,79.82619479768789,168,1104285,593537,510748,653299,1196,408125,245174,1010014,91269,814,196,74,41,273,1604,55929,20175,256081,55300,159593,238344,211029,103334,59914,59612,4094,1200768,660774,260368,181109,2034,68771,7811,17299,17595,31830,39087,73892,22044,861,59
Himachal Pradesh,Kangra,32.14093603238864,76.41205910931173,24,1510075,750591,759484,1152640,8053,606443,546197,1461140,19797,3023,8929,14511,194,208,2273,330081,148361,588321,39007,127699,243617,223099,284124,192936,91236,13577,1448180,766581,419172,319420,4902,220258,15746,29154,49211,92030,71776,68294,10196,1012,76
Himachal Pradesh,Kinnaur,31.60667184065933,78.51613736263741,34,84121,46249,37872,60699,354,36697,24002,64732,448,485,249,18086,29,45,47,17865,10740,44514,0,9400,13749,11437,11140,7871,5118,713,76372,42360,26599,15075,87,13521,2813,2912,2817,3672,2934,3758,629,819,72
Himachal Pradesh,Kullu,31.90911922077925,77.40922649350647,26,437903,225452,212451,307672,2623,174550,133122,415669,2974,1568,1396,15377,94,83,742,91322,40064,167995,20709,48384,77363,61854,58122,39081,23168,2377,413485,244727,120510,72282,384,55831,6409,8723,11656,23630,18451,22985,3691,942,70
Himachal Pradesh,Mandi,31.635805940594054,76.96556930693067,27,999777,498065,501712,723747,5333,393669,330078,981412,9460,876,4081,2628,43,86,1191,214491,59324,431129,31696,100052,159043,132147,180188,128549,54139,9350,982038,524285,279321,194661,1510,181985,11117,20457,29022,59385,42061,48770,9182,1007,72
Himachal Pradesh,Shimla,31.155725451807253,77.62573042168668,33,814010,425039,388971,612642,9177,342846,269796,791449,11810,2025,4047,3262,185,197,1035,172754,108888,279269,95896,69967,113536,113305,141490,95341,80414,9748,761377,425721,241956,145577,756,123535,14631,18780,25892,44780,31618,37051,8018,915,75
Himachal Pradesh,Sirmaur,30.682764453961443,77.43184689507493,32,529855,276289,253566,362645,2220,205617,157028,476830,33215,577,15501,2645,236,86,765,91509,28904,171102,21054,57853,100123,78103,67080,38282,23352,4048,509327,310244,136839,82471,301,60246,4217,6645,9085,19481,18894,29490,9278,918,68
Himachal Pradesh,Solan,31.03864311926604,76.94442140672783,31,580320,308754,271566,428578,5250,244372,184206,548579,14678,1452,13926,574,591,110,410,119866,53722,192787,51509,50331,89407,83992,95232,59363,36803,8280,527492,321533,167168,90808,811,90587,8513,11613,15608,30610,22556,27001,7452,880,74
Himachal Pradesh,Una,31.58330388349513,76.18353932038836,29,521173,263692,257481,399715,2412,213281,186434,480138,14275,390,26009,56,70,10,225,105929,43809,185091,20126,51838,87913,81256,105204,60626,32120,5511,512203,273223,142351,105358,241,66103,4431,8047,13184,27689,24668,26829,4851,976,77
Jammu and Kashmir,Doda,33.359614675767915,76.07163720136518,16,409936,213641,196295,219083,596,138620,80463,187621,220614,472,422,21,22,42,722,61831,7963,122267,11350,43794,47350,62719,48359,31416,12647,1846,411696,263576,93189,52744,427,23060,1782,6482,9190,14876,16753,25349,4188,919,53
Jammu and Kashmir,Jammu,32.713199095022645,74.8477520361991,21,1529958,813821,716137,1137135,19905,641916,495219,1289240,107489,12104,114272,470,1987,321,4075,294739,197168,254566,248043,135391,185962,253542,261852,159257,146501,30616,1441400,816827,435895,275585,1651,162522,6386,20036,39453,81952,71753,68820,13616,880,74
Jammu and Kashmir,Kargil,33.565994894894914,76.63675315315312,4,140802,77785,63017,86236,235,56301,29935,10341,108239,604,1171,20126,28,4,289,15824,3285,40370,7774,12732,19083,20874,16938,9826,3077,408,122792,87532,35561,17488,221,17649,689,834,983,1652,2356,6832,4866,810,61
Jammu and Kashmir,Kathua,32.51781678321678,75.58901398601404,7,616435,326109,290326,389204,1443,228499,160705,540063,64234,1828,9551,24,16,2,717,109422,32772,181374,33473,69396,82715,106411,91522,47694,24330,4504,607869,357864,160123,97684,764,26033,2476,7394,12854,26670,27609,33057,7776,890,63
Jammu and Kashmir,Pulwama,33.88414418604652,75.00921860465118,12,560440,293064,267376,293958,1537,178326,115632,13840,535159,1109,9440,35,6,18,833,73629,16828,147520,21703,36201,54808,73991,67368,40931,31286,5897,500851,342601,137032,80111,696,53836,705,2291,5461,11863,15618,31436,13867,912,52
Jammu and Kashmir,Punch,33.791241290322574,74.29593161290322,5,476835,251899,224936,261724,346,163333,98391,32604,431279,958,11188,83,10,2,711,62900,13160,132139,15269,55762,72024,69219,46062,29517,13962,1884,452474,304979,109818,61334,704,16586,1531,7435,10664,15825,18028,31443,3952,893,55
Jammu and Kashmir,Srinagar,34.27312898550724,75.11021159420288,10,1236829,651124,585705,748584,16413,431746,316838,42540,1177342,2746,12187,285,74,2,1653,165403,138119,4518,257721,88911,173309,178723,176409,132727,121856,32114,1214274,693238,351561,190330,1700,164002,2326,6626,15425,37998,41505,49622,13946,900,61
Jammu and Kashmir,Udhampur,33.04770670731707,75.15286951219511,19,554985,296784,258201,322354,1214,197543,124811,489044,59771,1962,3418,106,57,235,392,73999,20008,148664,34696,58567,80129,86008,55024,29657,17345,4030,525598,339145,140785,74757,298,18063,1758,4971,8878,17980,20243,31098,8634,870,58
Jharkhand,Bokaro,23.6814965034965,85.98398374125864,355,2062330,1072807,989523,1273520,9754,759088,514432,1636460,241451,13730,4174,1890,2045,160524,2056,274726,67157,250312,258452,242467,338861,342646,232434,154076,116396,21157,2043961,1261238,510375,282115,8602,130956,10350,28956,41924,78314,83464,119534,28896,922,62
Jharkhand,Chatra,24.11619945750453,84.93295804701627,347,1042886,533935,508951,510061,590,303902,206159,903179,116710,6565,888,35,129,12936,2444,27037,5307,200974,14528,200861,161729,102033,63670,35342,21697,2046,1055353,692650,222892,126682,662,18298,3419,13593,15490,25520,34121,68464,20305,953,49
Jharkhand,Deoghar,24.33070100755672,86.75697632241814,350,1492073,775022,717051,793538,1944,489837,303701,1165140,302626,6027,143,188,282,16067,1600,130193,26760,257373,64337,217460,266292,190171,96331,54419,43979,6699,1510895,944961,338413,205514,3185,42762,4333,18370,25873,46589,49742,85691,29718,925,53
Jharkhand,Dhanbad,23.854509090909097,86.40372924901185,354,2684487,1405956,1278531,1722204,11568,1014950,707254,2149480,431762,11243,9727,331,1268,77182,3494,427173,83995,258764,405455,317918,501453,449506,305054,186697,107382,14615,2545147,1634835,648876,356445,44331,198464,15054,33281,53844,99175,101585,153679,42561,909,64
Jharkhand,Dumka,24.275006125574265,87.27662450229711,362,1321442,668514,652928,672409,1193,406275,266134,1044726,106865,86404,234,267,162,78622,4162,62110,11836,303697,23281,229157,229259,149009,69525,38383,25593,2697,1344701,799323,324226,196164,1729,26873,8706,28365,38168,56146,52833,76605,12102,977,51
Jharkhand,Garhwa,24.082114689265527,83.68664265536722,346,1322784,683575,639209,653476,565,405161,248315,1104475,194680,17168,123,371,20,4591,1356,29373,6798,272872,19180,207665,195565,147446,87844,46882,28144,2830,1274228,860869,284036,177599,280,18018,5076,26987,26314,40088,51059,88464,16722,935,49
Jharkhand,Giridih,24.30578509874329,86.08710915619386,349,2445474,1258098,1187376,1253475,1944,783736,469739,1856202,508586,14645,937,650,1503,59218,3733,125431,16909,452564,46886,503261,443980,261309,146464,77540,55122,8449,2543810,1597269,533788,312967,1450,42269,5534,22053,29735,53870,72742,146041,61473,944,51
Jharkhand,Godda,24.8189,87.2941735483871,351,1313551,677927,635624,604519,874,376212,228307,937126,289182,37795,97,128,115,47067,2041,43230,7421,276454,15576,217607,190777,126766,79430,47395,30870,4002,1350311,820367,308639,183519,1026,26348,6263,23752,30133,45705,48161,79584,17420,938,46
Jharkhand,Gumla,23.078532948929148,84.55056787479396,366,1025213,514390,510823,559720,831,321795,237925,309563,51429,202449,221,531,23,457468,3529,31687,9108,216629,16445,136719,242580,182260,82114,45613,23742,2913,1038060,643579,225871,155452,311,19545,5786,13647,18973,28695,33927,69063,18758,993,55
Jharkhand,Jamtara,23.97873318077801,86.95325080091534,363,791042,404830,386212,426312,808,258260,168052,550560,164406,4419,520,118,783,68564,1672,49419,5564,165555,20113,131150,132014,85745,40613,22995,14802,1578,794909,480895,189889,116810,3448,14710,3906,12645,18845,30509,27563,43706,12929,954,54
Jharkhand,Latehar,23.72511185840708,84.48298743362837,359,726978,369666,357312,350682,340,209706,140976,473049,69808,47653,120,128,16,133525,2679,38194,2177,146377,14137,109491,121529,88787,46142,23885,13956,1017,754084,484084,152720,89870,304,14317,3155,10368,12948,20177,24955,50469,10613,967,48
Jharkhand,Lohardaga,23.488796043165483,84.6605169064748,356,461790,232629,229161,259707,351,149568,110139,112378,95012,16770,51,33,15,235987,1544,28769,8016,96759,14725,82873,84920,63545,38503,21987,13847,976,494974,298844,100340,62244,362,13613,2578,7033,9632,14782,17174,32787,7316,985,56
Jharkhand,Pakur,24.57260428082189,87.69691969178076,353,900422,452661,447761,352881,328,206989,145892,410127,322963,75865,356,283,222,88760,1846,31414,5316,200588,16587,100367,133770,79045,29934,15700,9822,1525,918597,587976,206826,104418,1202,18395,5517,18907,26520,34355,32530,52332,10417,989,39
Jharkhand,Palamu,24.196925968109337,84.20310842824594,358,1939869,1006302,933567,1024563,2155,621706,402857,1683169,238295,6164,734,188,284,5681,5354,68238,17270,355529,52375,303053,296937,231565,160964,100290,63595,7117,1966945,1244572,425668,268387,1242,46445,6422,31313,35321,56610,71184,125041,29624,928,53
Jharkhand,Ranchi,23.184235061391547,85.31781937244203,364,2914253,1494937,1419316,1911433,22538,1085244,826189,1612239,410759,193974,4826,932,2733,677445,11345,350908,164237,420740,310242,361522,547583,495515,370847,247237,195181,28424,2860164,1742293,725938,409166,36856,227932,15357,40971,65660,113820,114544,167822,38615,949,66
Jharkhand,Sahibganj,24.93667989690721,87.68264097938142,352,1150567,589391,561176,483263,591,287303,195960,628044,398243,83208,198,245,125,38426,2078,34879,11545,223450,37543,146399,171416,110822,52248,28087,19832,2593,1168693,745027,261849,137727,5964,34451,5792,21978,30506,40484,41665,70027,14065,952,42
Jharkhand,Simdega,22.608760391198054,84.59193691931536,367,599578,300309,299269,343483,423,191991,151492,201524,15103,306601,51,753,114,73930,1502,16865,3472,144169,11114,82317,130068,97580,47836,24842,13674,1197,588855,357859,143560,97817,342,9547,4170,10863,14689,20040,21214,38718,6912,997,57
Karnataka,Bagalkot,16.15860676328503,75.64526070853468,556,1889752,950111,939641,1113412,3745,641388,472024,1634229,219991,3433,443,412,25198,166,5880,301389,49345,324799,165858,242336,385986,147397,171505,115095,82319,25791,1779272,1123443,465706,299774,829,66813,14665,27809,40032,70342,73167,95192,34170,989,59
Karnataka,Bangalore Rural,12.936827087794448,77.47369314775169,583,990923,509172,481751,688749,3729,385311,303438,890429,92252,5368,389,272,1045,85,1083,214253,77454,231052,95410,100770,168165,126285,166677,82235,51015,10741,910950,535765,278153,176083,922,179589,9652,23267,37517,67485,39122,39473,8229,946,70
Karnataka,Belgaum,16.16107219152853,74.72329042357275,555,4779661,2423063,2356598,3052032,17560,1725548,1326484,4038331,528412,18418,2037,1086,178310,149,12918,808827,240742,962777,356198,544564,1057297,609600,532584,279583,201884,56621,4628909,2669348,1251116,857143,2054,316225,37652,82149,122453,229331,199193,226927,66120,973,64
Karnataka,Bellary,15.074377548209377,76.47228471074374,565,2452595,1236954,1215641,1421621,9626,813440,608181,2103633,320834,14014,1029,284,8044,54,4703,440374,114040,371604,251876,275785,529576,219702,203139,121453,89475,29367,2256259,1487013,617276,346905,1401,156110,15029,36995,58834,107207,101757,127026,34856,983,58
Karnataka,Bidar,17.950361730769224,77.19459961538459,558,1703300,870665,832635,1042673,3971,597198,445475,1289709,335184,35438,1145,30453,680,521,10170,271439,34924,287134,102269,188998,474921,194233,181076,105347,54900,12885,1727755,1018195,397120,287271,714,72805,8519,21648,28370,53752,68608,107588,25036,956,61
Karnataka,Bijapur,16.84015316666667,75.95909166666665,417,255230,128663,126567,86919,117,54076,32843,245151,1617,2709,68,1649,15,3793,228,12516,1022,50449,7942,25597,22787,14170,7192,6755,3421,147,243347,167348,63802,23927,153,2843,2429,6408,7852,9267,8817,13973,1656,984,34
Karnataka,Bijapur,16.84015316666667,75.95909166666665,557,2177331,1111022,1066309,1248268,4987,730566,517702,1786830,369588,2433,558,374,8665,499,8384,326594,58890,396449,131041,246391,430477,143199,182756,129109,96990,24569,2000470,1295274,527085,353549,1423,73300,12850,28819,40215,76206,86529,121864,38593,960,57
Karnataka,Chikmagalur,13.425288289676422,75.67626502311249,570,1137961,566622,571339,818345,4510,438257,380088,1004553,101235,26000,182,109,4710,4,1168,238505,74534,311660,80766,114570,257550,160083,177585,96470,72420,12631,1095680,564994,341380,230864,723,167369,11977,28314,48104,84585,49655,42270,7268,1008,72
Karnataka,Chitradurga,14.29102220394736,76.57821957236843,566,1659456,840843,818613,1087392,5711,607188,480204,1520553,128751,3175,322,84,3778,128,2665,307257,60522,349704,97644,188329,332648,196470,217567,132435,75262,22078,1617764,891230,460057,306412,1757,107142,11497,29092,48344,91516,73781,81805,18108,974,66
Karnataka,Davanagere,14.330414586709884,75.91723841166937,567,1945497,986400,959097,1308540,7320,720637,587903,1658465,265805,5420,307,164,6417,1743,7176,372671,100812,354680,176011,242130,446793,206686,269748,154781,123863,32375,1943790,1068518,538551,336173,2255,188046,10904,31291,54589,109193,85525,89741,23597,972,67
Karnataka,Dharwad,15.343831376975173,75.13831264108359,562,1847023,937206,909817,1301664,15013,711776,589888,1390020,386834,28747,1486,715,29037,2748,7436,347962,140584,199707,283397,252596,383041,185530,227113,143453,137768,34302,1792359,1017935,505688,322577,823,212091,12363,32050,52869,92142,78024,79875,24731,971,70
Karnataka,Gadag,15.507128256880746,75.64861302752298,561,1064570,537147,527423,700177,3373,397178,302999,907750,143665,3432,231,79,5993,74,3346,198064,31959,180066,111906,121615,244640,112703,105150,63816,42053,12822,1008937,601578,279069,183409,514,45668,8697,18430,27970,48139,45876,51064,15426,982,66
Karnataka,Gulbarga,17.070459515951594,76.87503850385033,579,2566326,1301755,1264571,1427368,9752,828359,599009,2011014,513125,8344,826,9589,4865,330,18233,404767,77334,400704,199303,177860,579057,270622,290570,153746,104256,20492,2480307,1570719,604665,388935,2007,118792,13541,31790,43936,77749,96061,158370,43798,971,56
Karnataka,Hassan,12.945098749999998,76.11049549999997,574,1776421,883667,892754,1225256,4851,668836,556420,1630814,120011,15611,289,623,5820,3,3250,400702,90599,496103,132878,182255,354480,232531,292369,147837,103152,27774,1741625,877340,522039,375918,1124,171212,19258,43577,74226,139331,76855,67234,8811,1010,69
Karnataka,Haveri,14.737582809224318,75.3961230607966,564,1597668,819128,778540,1085443,2456,603793,481650,1281878,297927,2406,419,68,9834,702,4434,295937,41517,315076,98488,240925,430529,201965,158442,84357,55310,16830,1571852,904453,426094,266586,535,121420,10102,25544,42726,80865,71675,75502,19042,950,68
Karnataka,Kodagu,12.39684468085106,75.79336595744688,576,554519,274608,279911,412877,3308,215302,197575,448986,87274,17130,139,126,250,220,394,113931,40958,181182,31792,51287,111562,75291,86232,54939,43225,8251,522139,276918,163360,113919,322,112626,8568,19579,25415,40686,23779,17490,2786,1019,74
Karnataka,Kolar,13.312799881235172,78.01376947743476,581,1536401,776396,760005,1016219,5051,564110,452109,1305431,199873,26722,253,150,2494,92,1386,309494,72407,326567,151042,138015,289841,228422,225498,107929,71422,17961,1478177,841499,419380,274240,1282,141675,12543,29989,46381,88678,65473,72881,15045,979,66
Karnataka,Koppal,15.651253271028034,76.1617048598131,560,1389920,699926,689994,809085,2135,468785,340300,1218024,161770,4081,296,85,2898,461,2305,223166,31673,272968,64681,222140,357098,127605,113028,72243,43967,10431,1418694,855430,330393,202984,1113,47931,8663,19194,28367,49603,53425,75020,25124,986,58
Karnataka,Mandya,12.574901806239744,76.81570098522172,573,1805769,905085,900684,1149649,3367,638668,510981,1712695,77801,8506,322,299,3607,109,2430,391033,80452,458867,103435,145178,309476,226552,308624,157839,102838,19987,1775228,902307,527236,375100,1126,159818,18494,41173,72440,131996,77223,72273,12979,995,64
Karnataka,Mysore,12.248100259403367,76.52881802853437,577,3001127,1511600,1489527,1962180,28397,1063766,898414,2631985,290549,39361,1255,16194,14419,493,6871,640868,273706,540596,380386,207091,537686,404565,452412,222230,212541,26834,2810596,1580116,865220,553705,2086,378503,27738,67567,118632,215723,122853,113521,22388,985,65
Karnataka,Raichur,16.050795353982295,76.87368606194688,559,1928812,964511,964301,979769,5200,577213,402556,1634062,272022,10394,538,2265,4156,29,5346,314547,51443,330446,125402,147743,385673,163709,153346,82082,50463,14622,1780764,1196670,465173,265810,1159,74326,11501,27037,39557,67172,71533,109289,33248,1000,51
Karnataka,Shimoga,14.063845885634592,75.17882078103197,568,1752753,877415,875338,1263016,8791,674938,588078,1479424,234664,26521,400,120,9234,367,2023,363835,128087,352444,201662,191641,385978,292481,251095,132138,111753,18036,1738344,913150,513297,325542,764,286129,14967,37377,65181,124966,79412,67079,13157,998,72
Karnataka,Tumkur,13.592467760074973,77.02297966260545,571,2678980,1350594,1328386,1813391,7971,1006024,807367,2413812,245923,9130,477,187,5067,161,4223,562769,116539,685443,204799,270373,500593,386998,423738,213588,143735,30687,2655986,1351461,760936,564196,2387,206821,32503,67398,109455,183042,114785,110970,18241,984,68
Karnataka,Udupi,13.450404228534568,74.72009990316337,569,1177361,562131,615230,926429,9070,465704,460725,1009179,96740,65838,232,161,4534,155,522,224814,83810,269817,115572,142493,286193,176260,178094,109663,107279,18444,1222454,559565,340903,276234,659,214808,11115,23243,34943,58352,42808,53755,22097,1094,79
Kerala,Alappuzha,9.542602965599087,76.38010796263319,598,2127789,1013142,1114647,1852797,28842,890552,962245,1460447,224545,435056,268,146,74,311,6942,507913,274392,331419,392117,133039,334339,418953,573306,274789,198858,58096,2155371,891512,648522,585591,2164,490935,20266,60721,102594,168549,97172,70844,8129,1100,87
Kerala,Ernakulam,10.004879301987431,76.26957729035381,595,3282388,1619557,1662831,2855676,88737,1425723,1429953,1509557,514397,1248137,860,614,1176,1083,6564,771287,499291,369694,804997,212263,446380,554817,702511,389793,429880,113133,3117092,1396968,1024720,858010,2690,774743,23843,85162,149988,270983,147414,103994,10353,1027,87
Kerala,Idukki,9.80480963855423,77.04586641566264,596,1108974,552808,556166,923010,8250,471881,451129,541854,82206,481507,100,189,44,384,2690,244844,54626,391610,20823,79149,166604,209398,261237,136428,86136,19252,1084793,494456,352163,261471,884,246878,10608,32718,47205,90960,53993,38760,2732,1006,83
Kerala,Kannur,11.941523076923056,75.35209891725934,589,2523003,1181446,1341557,2138434,32653,1012956,1125478,1509592,742483,262526,424,1118,193,722,5945,511167,115356,306288,566191,204713,487016,491844,540383,308670,217203,40277,2569458,1187177,741984,588081,5761,530436,19717,54436,87111,149708,93855,101710,36672,1136,85
Kerala,Kasaragod,12.33310309912974,75.07768497134369,588,1307375,628613,678762,1037492,10378,516476,521016,729987,486913,87454,151,362,130,152,2226,237670,74092,251641,166164,115476,268084,230416,238900,122657,76192,16585,1281215,688763,369883,246975,1754,245747,8292,22720,39574,68195,49989,58340,20652,1080,79
Kerala,Kollam,8.929388820570157,76.6360775852431,600,2635375,1246968,1388407,2240273,31542,1074345,1165928,1697635,508500,421598,208,272,63,619,6480,630767,263148,523715,401415,172247,406592,562529,595191,307950,233402,64052,2573249,1177359,795245,660965,1806,626758,26711,76792,132475,221052,112992,83769,9485,1113,85
Kerala,Kottayam,9.643701174068417,76.46059673302705,597,1974551,968289,1006262,1749798,37849,861592,888206,983598,126499,858608,204,358,83,565,4636,464039,187213,481967,196194,117681,271496,373998,475724,280720,221350,52339,1927701,811653,596302,565048,1548,464124,15538,54557,84509,150425,95420,74003,6001,1039,89
Kerala,Kozhikode,11.392924270557026,75.71158720159153,591,3086293,1470942,1615351,2615443,36791,1266939,1348504,1734958,1211131,131516,297,235,601,588,6967,641660,145558,323793,666543,247996,564392,647221,630818,351267,250117,53166,3080497,1487644,909581,686109,2959,668842,20408,63700,114136,198560,131865,122779,32377,1098,85
Kerala,Malappuram,10.97329875666072,75.93910775606876,592,4112920,1960328,2152592,3311315,27909,1597404,1713911,1135259,2888849,81556,205,179,68,579,6225,730119,139994,634543,522586,415601,770417,814285,933793,392867,203779,41344,4194431,2406005,1041361,662311,3243,754074,19178,49957,92845,169215,163389,200802,79209,1098,81
Kerala,Palakkad,10.784926903553291,76.49980490693744,593,2809934,1359478,1450456,2239492,27162,1122600,1116892,1875980,812936,114397,220,238,78,400,5685,587583,178386,665899,228442,249198,492864,608176,572412,232109,180540,36370,2811603,1395222,802611,608966,3135,564142,27077,62135,98388,174911,121324,112468,31984,1067,80
Kerala,Thiruvananthapuram,8.537101759082221,76.88711502868073,601,3301427,1581678,1719749,2785408,71621,1354857,1430551,2194057,452915,630573,404,301,76,1082,22019,783872,343590,559293,609824,206328,460690,642470,682156,389161,381782,76129,3147758,1488441,989238,820024,3724,780821,41529,99737,156362,271600,140853,103948,14745,1087,84
Kerala,Thrissur,10.458932647907687,76.12321940836945,594,3121200,1480763,1640437,2678548,56148,1282261,1396287,1823442,532839,757484,259,278,62,585,6251,721625,338350,336748,715119,222627,445696,524387,821831,362657,338600,71535,3094998,1394214,931841,792182,2963,727823,28012,86762,138655,228326,132323,107091,22661,1108,86
Kerala,Wayanad,11.715277464788736,76.07587007042254,590,817420,401684,415736,645585,4712,328136,317449,404460,234185,174453,61,312,1797,286,1866,149864,23028,266183,11805,65326,144896,137227,184266,87042,51111,8786,809865,412806,246590,157326,698,170170,6132,17127,29933,57494,37678,32026,5013,1035,79
Madhya Pradesh,Anuppur,23.18184220430107,81.86560000000007,461,749237,379114,370123,436595,1290,254120,182475,686524,21473,2132,606,86,1653,35434,1329,81338,23388,147388,60325,113208,115716,93450,58536,42743,31646,3066,730098,444954,193520,109813,950,29828,10691,22868,23690,34331,32761,39257,5221,976,58
Madhya Pradesh,Ashoknagar,24.63098846153845,77.82974493927134,459,845071,443837,401234,469109,619,290304,178805,778214,40707,635,8009,1352,15094,27,1033,84720,15886,169606,37135,148647,117053,62802,51499,29551,22791,3466,795334,535410,194772,114131,758,26227,7008,19576,19389,32336,34220,49792,8383,904,56
Madhya Pradesh,Balaghat,21.80020720640569,80.42170053380796,457,1701698,842178,859520,1147623,1712,626468,521155,1519384,38542,5295,1050,72162,4778,58064,2423,277927,27283,400074,70793,290699,312640,235251,168635,126308,74213,7414,1708575,969773,453605,276799,1521,73522,20627,45725,54919,91010,84346,89463,8220,1021,67
Madhya Pradesh,Barwani,21.702135714285724,74.91004719710673,441,1385881,699340,686541,549926,1158,313642,236284,1318869,58222,2967,2361,416,2289,263,494,181139,30115,250358,48912,157337,137116,74067,59100,42649,30754,2581,1328638,923665,302833,158594,789,45979,5580,17742,20963,36524,45230,89149,27873,982,40
Madhya Pradesh,Betul,21.964626315789477,77.7873428189117,447,1575362,799236,776126,939769,2109,529783,409986,1505745,37590,3271,1078,9651,3759,13048,1220,230974,45270,318945,87704,239114,232532,176325,140402,105696,82761,5876,1585804,938819,392728,242592,1223,81190,11870,30101,37702,70160,70169,92643,14429,971,60
Madhya Pradesh,Bhind,26.35951126187245,78.7618324287653,420,1703005,926843,776162,1094917,1166,676513,418404,1595400,66776,973,4047,12215,19950,73,3571,107819,32268,271211,88385,202629,261162,199044,140743,96011,50222,8059,1346343,1040736,399676,258588,4005,68734,9939,22269,25527,46066,55017,101448,37990,837,64
Madhya Pradesh,Bhopal,23.480726143790854,77.39246623093679,444,2371061,1236130,1134931,1660690,40788,920314,740376,1755861,525434,23432,10789,21688,25950,335,7572,452912,281442,118893,581826,229082,303171,287198,211371,178165,266618,30845,1969031,1405814,625594,330291,9362,352351,17604,45793,67348,115462,99298,120466,21779,918,70
Madhya Pradesh,Burhanpur,21.364567254408065,76.24460478589425,467,757847,388504,369343,408679,986,233073,175606,552526,180840,1199,1074,19883,1884,99,342,112420,40478,115979,62861,107547,119468,69765,57058,42618,28237,4761,747416,469838,181605,106034,370,50613,4958,12399,15902,27594,28941,43386,10974,951,54
Madhya Pradesh,Chhatarpur,24.813637376460004,79.56449299191374,425,1762375,936121,826254,943033,1880,572010,371023,1676918,70351,1980,968,250,10409,102,1397,176056,36506,375869,95048,270951,236054,160310,112961,77787,59704,7837,1695872,1112636,394060,252417,3262,56851,17905,40360,38067,60050,71611,118698,24194,883,54
Madhya Pradesh,Chhindwara,22.227966971713823,78.76413136439254,455,2090922,1064468,1026454,1294198,3588,731294,562904,1923920,100692,4893,2258,24471,7830,25771,1087,344875,73284,413142,140802,284113,336391,225747,215098,167946,112383,12141,2017265,1232263,535316,321977,1366,111901,18466,40823,50272,96510,97427,117941,16950,964,62
Madhya Pradesh,Damoh,23.76624407960196,79.47049303482588,428,1264219,661873,602346,747715,1432,445737,301978,1186420,47966,1681,1096,119,25005,82,1850,187731,23270,303387,66514,197917,217296,150040,95032,64414,41158,5260,1240155,768929,312593,181403,1294,43355,18611,45411,42311,64924,61614,62447,5797,910,59
Madhya Pradesh,Datia,25.90226439560441,78.63916571428574,422,786754,420157,366597,491445,616,303815,187630,747693,28483,683,490,7923,453,10,1019,97696,17555,160453,43401,132176,131372,88949,73398,48978,34853,4262,774064,473097,195131,118186,340,35209,7451,16280,18156,32738,32027,43215,9669,873,62
Madhya Pradesh,Dewas,22.7851110021322,76.46088805970157,437,1563715,805359,758356,925369,3518,550716,374653,1376591,174259,2355,2330,382,6497,72,1229,270457,59521,274995,101014,242508,225380,149522,125772,94403,55383,4991,1463324,943954,388648,230280,833,112895,9614,27019,33382,65024,62333,86599,20771,942,59
Madhya Pradesh,Dhar,22.572681718963157,75.1105620736698,438,2185793,1112725,1073068,1077338,2388,638479,438859,2051219,116202,2261,1607,328,12199,88,1889,349639,75637,412348,103364,262090,244058,164576,134279,99882,66721,6543,2000000,1377326,533243,273050,2174,126246,13730,36576,43219,82711,83514,129512,30551,964,49
Madhya Pradesh,Dindori,22.83738437047757,81.04332966714911,453,704524,351913,352611,378714,554,222759,155955,605435,6736,4238,260,61,687,84006,3101,62372,4576,218021,9774,103002,113875,84065,49277,31104,15179,1674,693831,419531,181841,102522,630,9945,10701,25867,25416,37087,33957,33585,2386,1002,54
Madhya Pradesh,Guna,24.49043927178156,77.2235895968791,458,1241519,649362,592157,653980,2482,400537,253443,1172248,49203,1208,3271,529,13474,52,1534,144248,34184,212765,72320,197902,157141,84560,79924,50724,42147,6451,1196883,793150,285176,162104,1089,47903,7399,25762,25661,44051,49353,75408,13799,912,53
Madhya Pradesh,Gwalior,26.04074441964285,78.12782433035713,421,2032036,1090327,941709,1357210,15779,803114,554096,1835299,141735,4119,24790,4361,18058,217,3457,306859,165061,172720,272172,235648,235924,204871,193082,166719,193947,23148,1807825,1218319,519728,291451,2538,221052,9400,26935,39042,73239,76641,112892,31356,864,67
Madhya Pradesh,Harda,22.227659781121783,77.07022571819435,448,570465,294838,275627,352550,986,203807,148743,527462,38640,683,676,93,1573,55,1283,95066,22174,112714,31845,90059,87733,60757,46556,31939,27126,3469,525370,347774,138882,83417,392,51766,3691,9767,12137,21669,23004,33489,7224,935,62
Madhya Pradesh,Hoshangabad,22.595268801996703,78.02168094841929,449,1241350,648725,592625,810644,2871,469199,341445,1175203,52269,4453,3127,1550,3888,107,753,198076,61415,209650,105746,159703,183156,145076,119682,89589,84769,9279,1135746,730768,318232,191501,849,122069,9942,23157,29245,53582,55128,69820,11688,914,65
Madhya Pradesh,Indore,22.680265752128648,75.9133801324502,439,3276697,1699627,1577070,2309130,48691,1289631,1019499,2728225,415142,18523,25696,11496,71667,720,5228,593576,417170,200371,587947,428413,472233,384611,362209,300076,382658,36326,3084700,1877270,894464,493096,11867,480633,17845,46409,77386,146797,123675,154066,49156,928,70
Madhya Pradesh,Jabalpur,23.18525572327043,79.98328754716981,451,2463289,1277278,1186011,1756468,20443,980307,776161,2159065,203652,23142,13256,4320,33728,21010,5116,452023,192581,272284,352477,267932,352284,313910,268333,222987,235072,24872,2225419,1387369,679185,391903,4832,286802,19774,53407,70777,126486,112003,112904,19678,929,71
Madhya Pradesh,Jhabua,22.419578015397768,74.40921616766468,464,1025048,515023,510025,352081,744,214582,137499,960925,15733,38423,141,65,8871,388,502,125411,16683,211080,24713,98308,79781,40466,38236,28990,20240,1973,1083658,684200,220769,119681,398,24293,3384,13785,18527,32178,37827,80303,21617,990,34
Madhya Pradesh,Katni,23.724416229116937,80.33819665871127,450,1292042,662013,630029,790773,2179,460583,330190,1240650,37232,3158,1167,157,5342,2643,1693,172416,38086,276151,72880,198447,207366,161727,112242,80935,53578,6658,1286327,778414,326582,185857,1189,56180,15764,37252,37518,59446,61467,70214,7365,952,61
Madhya Pradesh,Mandla,22.70348712446353,80.38600543633753,454,1054905,525272,529633,604962,912,348033,256929,849518,16558,12450,436,297,1789,170533,3324,143803,18413,279674,37258,156711,170994,115632,82166,58066,35476,4587,1000576,614794,278553,160510,1048,33217,14377,33344,36738,57935,52517,50642,3634,1008,57
Madhya Pradesh,Mandsaur,24.19278764044944,75.43588667736759,433,1340411,682851,657560,834591,2324,502898,331693,1192588,125548,1120,849,242,19029,77,958,239885,47723,302287,81832,244891,217234,149219,109751,77219,52546,4956,1322818,781000,346861,211815,735,68287,12087,31202,37148,65757,55664,70418,12135,963,62
Madhya Pradesh,Morena,26.37313504531724,77.88447341389724,419,1965970,1068417,897553,1179685,1781,747652,432033,1875495,76159,1092,557,3234,6681,92,2660,131486,45113,319298,95288,288979,285682,228234,170254,115790,71005,8265,1875126,1254302,452484,257704,1480,75574,12289,32412,35342,59993,70960,117005,34308,840,60
Madhya Pradesh,Neemuch,24.70311893333336,75.06608186666664,432,826067,422653,403414,508834,1945,307889,200945,741288,67324,1508,1110,224,14165,115,333,145258,34666,174235,67962,137656,127167,83189,69134,53465,42343,6119,808186,476995,217403,131227,442,46190,8294,21218,23744,40659,33158,40638,7955,954,62
Madhya Pradesh,Panna,24.451325840092657,80.21133001158752,426,1016520,533480,483040,552559,653,332140,220419,974748,35214,418,186,37,4734,218,965,76097,13285,256744,32179,171707,134936,99251,70359,47903,29795,3052,985000,635347,235035,144827,1311,23811,15588,32172,29198,44272,45579,60233,6612,905,54
Madhya Pradesh,Raisen,23.292518206521724,78.16305495923909,446,1331597,700358,631239,820220,1141,479093,341127,1195235,120331,1725,2262,253,10637,190,964,194373,34499,251272,74441,237981,210402,144108,117908,69419,48384,4607,1277686,832939,316319,181524,815,82664,10525,30003,33397,53625,56751,79383,10526,901,62
Madhya Pradesh,Rajgarh,23.785499026425583,76.66431223922116,442,1545814,790212,755602,804245,1611,488797,315448,1433879,106928,1243,460,121,1599,50,1534,231130,30688,331894,69823,239738,174381,103464,96386,72316,51499,4799,1449541,935230,363218,246447,919,54463,16163,49655,46504,71223,64538,83043,10722,956,52
Madhya Pradesh,Ratlam,23.503562290502792,75.14895782122909,434,1455069,738241,716828,825880,3644,485090,340790,1267043,151071,3996,1353,175,29353,123,1955,213825,67830,266716,107151,224715,194131,129392,111461,86507,67192,5868,1441419,876905,363858,213560,746,96263,11435,29551,35326,61055,58343,81285,16121,971,57
Madhya Pradesh,Rewa,24.861184625158856,81.57572465057183,430,2365106,1225100,1140006,1441757,3406,845572,596185,2268838,85414,1964,832,986,655,232,6185,251132,45180,523910,94489,344362,330131,312931,206274,180635,122371,11438,2274308,1460075,540235,362228,2568,126470,34174,78271,66018,99782,100304,140110,21714,931,61
Madhya Pradesh,Sagar,23.800318709677374,78.71940357771273,427,2378458,1256257,1122201,1545719,4546,908607,637112,2198297,103480,5580,4146,991,62992,168,2804,366494,68482,448408,165507,347752,426916,297079,214137,137899,116753,14346,2266686,1470688,569166,335432,3172,127876,25924,64554,66019,102185,103802,129330,17541,893,65
Madhya Pradesh,Satna,24.62777621776502,80.75547048710598,429,2228935,1157495,1071440,1371781,3754,801051,570730,2158623,59471,2228,1163,364,3135,1689,2262,294702,55196,461831,114173,338947,334635,309536,197373,148091,105499,16052,2165642,1365647,535086,326049,2153,142613,25510,61008,55635,90237,96254,128453,21656,926,62
Madhya Pradesh,Sehore,22.9297199679658,77.06780202883085,445,1311332,683743,627589,780362,1566,469208,311154,1163607,137980,1404,640,357,6232,66,1046,212138,30868,270427,59220,193885,179388,136284,120687,77541,50655,6755,1273591,817608,305605,187611,508,80229,7906,23527,25917,48175,52905,78612,14544,918,60
Madhya Pradesh,Seoni,22.33230487804874,79.66053863928111,456,1379131,695879,683252,864194,1182,485341,378853,1145052,79739,1857,360,7288,4982,135315,4538,228695,26893,335045,47542,223650,241327,151636,116124,84398,55984,6427,1338357,809922,363037,205237,935,68267,16619,37988,40885,71513,68455,71679,6135,982,63
Madhya Pradesh,Shahdol,23.44859864559819,81.4596831828442,460,1066063,540021,526042,604194,1733,348761,255433,997073,42426,2372,912,268,1737,19448,1827,113184,24255,233594,57846,161972,154282,128427,80402,60915,46513,5352,1060599,645619,269145,150655,644,43590,16234,40531,37475,48798,46165,53730,5850,974,57
Madhya Pradesh,Shajapur,23.566620317220547,76.33555181268885,436,1512681,780520,732161,894612,1382,543509,351103,1321003,174724,815,631,179,13755,66,1508,232735,32204,312611,73997,271215,239081,141225,111366,75967,48671,3391,1435707,901161,369741,240768,1011,68975,11130,29066,32033,60914,59630,86441,19052,938,59
Madhya Pradesh,Sheopur,25.78014810996563,77.16911116838484,418,687861,361784,326077,328025,273,208201,119824,638702,41396,230,6387,201,379,40,526,74770,11701,150146,26376,90911,70840,43009,37072,24732,17091,1497,678293,449974,155063,82416,408,18710,6713,18350,18090,25892,28651,41950,5102,901,48
Madhya Pradesh,Shivpuri,25.37802451874367,77.74861600810549,423,1726050,919795,806255,900846,1852,573242,327604,1648749,51200,1117,7151,3421,12171,72,2169,148128,35706,367859,66759,261087,214162,125117,84684,58509,44812,6218,1514136,1106084,389652,227989,2325,52090,18170,43110,41733,64387,70994,102584,15384,877,52
Madhya Pradesh,Sidhi,24.17547189952905,82.1053783359498,462,1127033,575912,551121,600785,837,353030,247755,1077545,34419,511,128,92,93,12556,1689,102228,9569,250953,25916,185550,168224,129344,80312,60845,33067,3896,1138710,721531,253685,150959,858,17833,13560,31770,27536,39560,42658,70332,13058,957,53
Madhya Pradesh,Tikamgarh,25.14099852104666,78.89357064846428,424,1445166,760355,684811,747940,1090,459353,288587,1383475,44143,588,251,109,15569,39,992,132725,21489,322772,60220,202448,188694,143231,78053,58245,35034,5340,1370393,898323,343824,201875,1144,30506,12354,33699,30580,59978,61738,84868,15997,901,52
Madhya Pradesh,Ujjain,23.319288862745065,75.80383717647058,435,1986864,1016289,970575,1240990,7501,730817,510173,1718204,233133,4659,3241,945,24622,211,1849,323379,123526,300765,188684,286534,280030,178295,159263,119586,111290,13282,1807559,1156749,508302,320502,1311,165304,13314,33412,42482,82938,78006,106544,27582,955,62
Madhya Pradesh,Umaria,23.59601063063061,80.90879477477475,431,644758,330674,314084,356672,839,210907,145765,620515,15966,667,190,70,220,6028,1102,67975,12713,138100,29966,90791,94011,74854,43418,27216,18144,2784,582000,403030,158140,82984,604,19781,7933,20578,19472,27821,29263,35468,3894,950,55
Madhya Pradesh,Vidisha,23.82838307984792,77.9013507604563,443,1458875,769568,689307,862918,1926,512344,350574,1287391,149548,1313,914,295,18490,70,854,181510,41617,292579,83830,242021,214603,123650,104007,65581,59814,6780,1328767,919239,335690,203005,941,73505,12975,32112,34981,54230,60256,89879,12986,896,59
Maharashtra,Akola,20.746310479041902,77.12122320359276,501,1813906,932334,881572,1411281,6163,758977,652304,1107809,357253,4483,1504,328033,10205,389,4230,314490,107463,308158,196077,231841,328367,275264,291391,205723,112574,15157,1813004,998769,483200,327932,4005,180311,13577,40804,52202,97428,84591,86078,16455,946,78
Maharashtra,Amravati,21.16520991810736,77.67583503184723,503,2888445,1480768,1407677,2251875,9438,1207104,1044771,2055177,421410,7223,2242,383891,11360,3288,3854,512492,175917,508921,272894,326195,468853,463051,525116,346876,203273,16148,2827586,1540590,783549,553265,11041,342031,23825,68468,90409,172071,136507,124902,21264,951,78
Maharashtra,Bhandara,21.211792649727748,80.10950199637024,506,1200334,605520,594814,899860,2932,488709,411151,1009352,26502,2145,831,154458,1017,3555,2474,227025,55948,283843,72575,115150,187870,208902,204435,153749,67061,12452,1185143,626978,333120,232754,7482,168707,11857,27093,38939,79510,61879,50895,5600,982,75
Maharashtra,Bid,18.952353340080982,75.69319706477731,523,2585049,1349106,1235943,1718507,5614,987185,731322,2174672,320395,2097,824,68482,8719,399,9461,402052,82098,563114,135457,309704,436446,280800,316758,206530,129996,11438,2513279,1473882,614615,494436,2116,136943,16817,54460,57981,118905,119250,151010,26650,916,66
Maharashtra,Buldana,20.56680611183355,76.39017880364096,500,2586258,1337560,1248698,1879874,4767,1048892,830982,1845424,354236,3531,1668,364229,12242,522,4406,423036,103898,575405,152787,315408,457067,400342,406379,228266,113783,19619,2541300,1467457,641840,473071,3890,195038,21975,58072,70149,134349,117382,127921,23183,934,73
Maharashtra,Chandrapur,20.095609090909075,79.31556380471388,509,2204307,1123834,1080473,1578615,8239,872565,706050,1780085,92297,10701,5251,286734,3861,23188,2190,418666,172661,451324,233331,243773,316192,337320,351610,241179,126488,15040,2148330,1163802,629890,403719,6896,229471,25793,63808,81791,162114,108425,78830,8851,961,72
Maharashtra,Dhule,21.274018690400517,74.58719071837263,498,2050862,1054031,996831,1293916,6065,723388,570528,1825460,187901,3653,1422,13405,12818,912,5291,315332,126138,382777,146013,200494,323641,208571,290656,182739,114931,14526,1985126,1167569,513908,350747,18638,127610,13980,34096,41877,90252,85597,112622,30276,946,63
Maharashtra,Gondiya,21.225008411214997,80.17522698598128,507,1322507,661554,660953,1004243,2866,542837,461406,1153861,26157,1827,2160,125282,1568,5080,6572,239981,38044,319702,66813,138457,237888,231153,225595,159570,57923,9620,1316755,704214,371908,244111,2274,151792,11264,26599,36760,76317,65466,64380,8645,999,76
Maharashtra,Hingoli,19.59525302245251,77.09239412780653,512,1177345,606294,571051,790743,1221,450551,340192,863199,127552,992,643,176679,5278,103,2899,159114,27700,242456,41913,175736,266649,127246,136075,74544,38698,5932,1156268,692117,281905,201828,1495,73460,5715,18442,22066,48484,49765,66399,16170,942,67
Maharashtra,Jalgaon,20.8828943415638,75.55140421810695,499,4229917,2197365,2032552,2891882,14297,1629223,1262659,3457615,560261,7091,3091,143865,27404,9662,20928,720791,350029,796223,373565,482462,735730,532587,627198,375643,229987,31008,4017665,2352671,1080237,763529,33480,316969,38031,86964,110671,216606,185410,207987,45988,925,68
Maharashtra,Jalna,19.984612534818933,75.98473607242339,514,1959046,1011473,947573,1195523,3791,699428,496095,1504641,274221,12542,1629,152540,9619,336,3518,288895,60219,404746,98084,271061,422207,218189,225331,120715,64060,9724,1877267,1150104,454836,341479,12627,141841,12310,35091,40200,82627,82839,109422,25627,937,61
Maharashtra,Kolhapur,16.44881301587301,74.12897150793648,530,3876001,1980658,1895343,2825845,22269,1559760,1266085,3379906,286558,15573,1570,29766,154882,1274,6472,770005,340318,796496,382818,321457,622362,487227,698604,395234,335413,40828,3679125,1972486,1084858,801590,17067,612194,31720,74454,117330,228697,155987,166043,47252,957,73
Maharashtra,Latur,18.348687268993856,76.75812607802874,524,2454196,1273140,1181056,1650672,6217,932432,718240,2006984,367664,2387,935,66535,6387,310,2994,381722,96018,428616,157016,268627,423711,296910,380344,224998,153256,18106,2362165,1406364,584243,453229,10360,178478,11663,37583,47525,103991,106069,134259,33059,928,67
Maharashtra,Nagpur,21.196556862745105,79.02166176470584,505,4653570,2384975,2268595,3673808,57964,1959220,1714588,3492202,390974,34667,20469,668050,24528,12181,10499,917626,599780,430844,877522,325084,666693,812381,790443,542228,493236,73475,4305087,2460820,1361821,818467,12462,753520,36059,91544,149225,286874,211781,182251,38074,951,79
Maharashtra,Nanded,19.209316983017,77.6829048951049,511,3361292,1730075,1631217,2189425,7548,1255222,934203,2501741,471951,3902,13540,354189,5049,1273,9647,488748,116284,591119,230563,416869,691348,368723,416761,255650,156225,21729,3211931,2008314,809135,535827,8016,217163,15073,55602,73125,145062,146906,179714,40821,943,65
Maharashtra,Nandurbar,21.523175625248147,74.32638757443429,497,1648295,833170,815125,906509,2579,512099,394410,1521618,96182,8467,685,4969,6191,2907,7276,186202,54335,333440,71572,166664,218718,121404,160961,113019,58461,9248,1639088,1011352,390419,241534,4990,91574,9605,32683,35991,64261,62790,93252,21041,978,55
Maharashtra,Nashik,20.266912871287143,74.03824168316828,516,6107187,3157186,2950001,4345366,45039,2397538,1947828,5237009,693052,23946,8912,94783,38212,1795,9478,904710,536781,904661,764271,544346,1038955,851714,830070,485052,373100,97219,5702234,3580633,1567252,948469,10833,551864,35768,96688,140025,279902,242568,298134,87208,934,71
Maharashtra,Osmanabad,18.19459456066944,75.99495575313809,525,1657576,861535,796041,1137810,3209,644304,493506,1437623,178925,942,340,28216,4530,195,6805,240042,49180,367158,77832,183972,300965,201646,260772,139479,96847,9913,1633957,917343,393539,343021,3673,96586,14578,36802,38462,78207,73795,87928,18988,924,69
Maharashtra,Parbhani,19.31032425249168,76.70163338870431,513,1836086,942870,893216,1157814,3982,666291,491523,1328385,306364,2081,1371,187899,6238,262,3486,272486,59272,293480,133759,229217,396713,204316,229103,116041,81333,9703,1819069,1078349,436486,313455,7796,103819,9159,32003,37244,74180,77586,106170,23844,947,63
Maharashtra,Pune,18.51696171428573,74.12922881632647,521,9429408,4924105,4505303,7171723,235018,3940210,3231513,8090254,673704,134192,27090,340404,127786,9873,26105,1925019,1410448,1165718,2056739,559840,1234549,1383055,1414563,867256,1086650,190336,8089326,5184734,2624165,1586132,34377,1531966,96584,236257,352685,568235,365111,364149,93586,915,76
Maharashtra,Ratnagiri,17.210195070127703,73.25725893866404,528,1615069,761121,853948,1199392,7752,619012,580380,1307211,187197,1990,230,113467,3347,95,1532,367352,100860,538538,100824,163025,378554,269872,247257,111600,65700,15429,1571059,777431,438905,396967,1766,273162,37275,60252,61760,84254,66461,68615,14762,1122,74
Maharashtra,Sangli,17.154930181086502,74.70713822937628,531,2822143,1435728,1386415,2049467,13212,1121550,927917,2440312,239607,9098,1260,38210,87453,769,5434,485126,227034,626872,226801,208511,507318,459156,453404,244804,214003,36983,2703218,1450907,752303,603739,15194,380072,26079,56682,76036,143725,111917,131446,39342,966,73
Maharashtra,Satara,17.6737908974359,74.18052064102558,527,3003741,1510842,1492899,2225694,14093,1201034,1024660,2691952,146970,4408,1182,141315,12810,676,4428,562653,271186,774522,200949,288427,495822,407977,556706,299993,243457,20884,2858689,1517324,800492,671702,14223,455235,34375,67378,83191,157231,119185,137863,40776,988,74
Maharashtra,Sindhudurg,16.170948049777163,73.51329008172343,529,849651,417332,432319,666067,3517,348289,317778,780384,26264,15471,219,24762,1046,53,1452,194228,42540,295847,44989,86480,165284,134734,175070,89023,48418,3451,824382,382024,242296,222963,2368,155696,19204,29971,32456,46485,35206,34018,7779,1036,78
Maharashtra,Solapur,17.837357937584812,75.42394823609216,526,4317756,2227852,2089904,2910676,15145,1651266,1259410,3795424,441254,9882,1279,35497,28134,568,5718,595560,248255,779929,376302,390337,788150,535848,643327,328020,236302,29051,3927830,2402794,1089900,809935,15127,355107,34195,77570,92587,198967,177683,215367,62612,938,67
Maharashtra,Thane,19.698767747440264,72.79882742564581,517,11060148,5865078,5195070,8227161,256170,4591396,3635765,8716055,1355630,280700,39149,449617,172052,9862,37083,2231800,1610460,713994,2904157,712171,1530916,1588196,1751284,1080597,961719,114453,9431358,6184519,3241888,1579921,53820,1627847,96076,254251,435279,657707,442943,451745,92615,886,74
Maharashtra,Wardha,20.80743024390242,78.57259105691062,504,1300774,668385,632389,1019458,4313,552617,466841,1057096,53854,2696,2147,175417,5663,2254,1647,266155,114029,268486,120218,140470,186781,201471,225208,158055,93772,7017,1224828,659540,370227,270107,900,171680,13479,33834,45226,91911,64480,47580,6170,946,78
Maharashtra,Washim,20.282282394366213,77.25502394366208,502,1197160,620302,576858,869917,1875,487703,382214,859949,142672,1707,518,179330,8476,381,4127,196022,36840,274925,55921,166509,238985,160331,162762,116032,47865,7294,1191303,682919,302425,210185,1631,87120,8898,27564,31483,63577,56598,59947,9825,930,73
Maharashtra,Yavatmal,20.04258346738159,78.05326371760479,510,2772348,1419965,1352383,2022574,6094,1115980,906594,2251401,239236,4567,1596,249874,11422,3745,10507,446516,134500,629243,168889,391944,562739,382001,389924,245819,123074,21889,2835594,1549263,733258,483813,6014,198454,27030,78034,92410,174490,136905,117638,13878,952,73
Manipur,Bishnupur,24.50712111801243,93.8246236024845,275,237399,118782,118617,156333,676,87313,69020,175102,18691,4264,56,76,16,38457,737,34364,11393,34977,21172,15941,36011,50004,31775,20077,20074,1440,242932,135220,62907,38815,457,41441,507,2685,5735,9335,9868,14808,1953,999,66
Manipur,Chandel,24.2635812987013,94.09443844155844,280,144182,74579,69603,90302,184,51053,39249,10810,3086,129049,136,400,59,354,288,18764,1424,30377,3783,17382,28163,30589,18971,12213,8105,240,153854,86255,39324,18329,274,23065,584,3362,4975,5409,5002,8534,1231,933,63
Manipur,Churachandpur,24.30309718875504,93.38671506024085,274,274143,138820,135323,195935,837,104013,91922,12034,2886,254979,152,495,87,2333,1177,29894,13371,52972,4853,32860,67907,65475,38567,23284,14523,509,300686,168608,67802,37096,637,41638,758,4460,6270,8059,8407,17268,4694,975,71
Manipur,Senapati,25.08465586034914,94.03366234413956,272,479148,247323,231825,264477,256,148012,116465,43833,1649,426819,140,2409,53,1243,3002,22798,2430,38008,1826,46757,81735,91395,62033,40438,24940,598,538897,314439,111516,52008,1185,29985,289,2546,4632,5986,6179,13208,1647,937,55
Manipur,Tamenglong,24.98312942238265,93.49450740072204,273,140651,72371,68280,85006,125,47403,37603,2995,589,134760,59,425,57,1144,622,11541,1229,23982,4119,11155,28461,26794,17867,11645,7102,270,148611,90273,33290,16924,164,17284,264,1483,3054,3971,4194,9422,2089,943,60
Manipur,Thoubal,24.545392553191498,93.97959893617023,276,422168,210845,211323,269304,880,152617,116687,267146,107323,4322,106,114,24,42347,786,49507,15994,65961,38302,32396,69738,87932,55803,37899,28550,3214,433620,251975,107196,62060,937,78949,1181,5299,11800,19014,19059,25862,3080,1002,64
Manipur,Ukhrul,25.05900314960629,94.44129566929138,279,183998,94718,89280,129829,276,70148,59681,7553,1115,174112,108,635,70,32,373,14026,1659,36084,5806,20670,29382,38350,31734,22729,15636,405,201062,113715,43646,25165,1472,29549,1272,3745,4814,5535,5457,12397,2570,943,71
Meghalaya,East Garo Hills,25.82728228228228,90.64684924924916,294,317917,161223,156694,192147,288,102513,89634,17272,3359,289708,56,1004,38,5617,863,24550,1839,62698,11518,51578,70679,52762,31328,9473,2484,298,319383,216742,70424,29926,825,46851,958,3992,7301,9488,9557,20576,5485,972,60
Meghalaya,East Khasi Hills,25.303763888888884,91.75922519841272,298,825922,410749,415173,578030,5032,287270,290760,144935,14185,543394,2495,3111,303,115597,1902,135941,41496,106248,108843,118135,163729,127722,94579,58836,61639,9397,802612,545961,192428,86576,957,111335,8824,14620,22449,28384,26067,46821,13667,1011,70
Meghalaya,Jaintia Hills,25.33959557069844,92.37608160136298,299,395124,196285,198839,187527,510,87371,100156,12456,1646,271596,34,284,45,107559,1504,41677,7150,76546,7171,67749,61526,34677,26748,13544,8039,2934,380401,291097,72934,30362,731,30960,2159,3611,6187,8404,9344,24677,10460,1013,47
Meghalaya,South Garo Hills,25.240568578553614,90.64560349127176,295,142334,73170,69164,82062,179,45003,37059,7036,1050,132984,27,332,10,362,533,10940,482,35930,3713,25906,28921,21506,13858,3998,826,831,140695,97082,30605,14495,152,15916,674,1545,2579,3498,3781,8929,3202,945,58
Meghalaya,West Garo Hills,25.495285185185185,90.03709947089942,293,643291,324159,319132,358702,1630,193438,165264,122936,106788,389956,209,3392,144,16950,2916,51301,10006,139351,18594,85733,129178,90963,70941,29404,10856,3547,629522,427629,143604,70599,1459,73800,3339,9362,16475,21168,20857,41203,9376,984,56
Meghalaya,West Khasi Hills,25.500889926739926,91.25364542124538,296,383461,193715,189746,230678,149,117307,113371,6498,1533,366881,58,1313,38,5878,1262,32873,476,74832,12299,80318,78208,45046,28417,12295,6450,541,384519,278569,69988,33431,1473,29492,1765,3905,6781,8599,8908,23307,10355,980,60
Mizoram,Aizawl,23.90781335453101,92.85359459459472,283,400309,199270,201039,340595,4019,169547,171048,13249,5264,379134,105,1570,76,505,406,79804,64710,20570,80341,29332,68214,100103,78752,37701,31310,2058,385718,235892,108094,56092,231,80980,4018,7194,10677,15555,16809,22808,4851,1009,85
Mizoram,Champhai,23.54166580976866,93.24221799485862,284,125745,63388,62357,100802,186,51440,49362,1075,699,123446,9,151,45,194,126,23948,9115,18395,12717,14491,31359,30454,16259,4956,4087,78,117133,78778,29690,17189,88,24612,1463,2145,3241,4424,4852,7908,1627,984,80
Mizoram,Kolasib,24.2020004347826,92.73470391304348,282,83955,42918,41037,65895,367,34147,31748,4000,4426,75210,16,108,2,46,147,14853,8787,9669,12507,11367,18046,20399,9849,3473,2530,62,79943,52147,20576,11167,65,16632,953,1521,2397,3156,3374,4932,963,956,78
